{"businesses": [{"id": "ps9ZlLoLYTfK87IjW9REfg", "alias": "radiator-whiskey-seattle", "name": "Radiator Whiskey", "image_url": "https://s3-media4.fl.yelpcdn.com/bphoto/DgO6qKI0E2yarXN82O4WbQ/o.jpg", "is_closed": false, "url": "https://www.yelp.com/biz/radiator-whiskey-seattle?adjust_creative=yfMpLaf7muZFCbIJiMb75g&utm_campaign=yelp_api_v3&utm_medium=api_v3_business_search&utm_source=yfMpLaf7muZFCbIJiMb75g", "review_count": 1121, "categories": [{"alias": "newamerican", "title": "American (New)"}, {"alias": "cocktailbars", "title": "Cocktail Bars"}], "rating": 4.5, "coordinates": {"latitude": 47.60888, "longitude": -122.34036}, "transactions": [], "price": "$$", "location": {"address1": "94 Pike St", "address2": "Ste 30", "address3": "", "city": "Seattle", "zip_code": "98101", "country": "US", "state": "WA", "display_address": ["94 Pike St", "Ste 30", "Seattle, WA 98101"]}, "phone": "+12064674268", "display_phone": "(206) 467-4268", "distance": 290.65358499354414}, {"id": "1JAi_6_J7zs3RBKeKooP0g", "alias": "ummas-lunch-box-seattle", "name": "Umma's Lunch Box", "image_url": "https://s3-media4.fl.yelpcdn.com/bphoto/1Cq7uSCEgC7xsb-MXJ-AQg/o.jpg", "is_closed": false, "url": "https://www.yelp.com/biz/ummas-lunch-box-seattle?adjust_creative=yfMpLaf7muZFCbIJiMb75g&utm_campaign=yelp_api_v3&utm_medium=api_v3_business_search&utm_source=yfMpLaf7muZFCbIJiMb75g", "review_count": 404, "categories": [{"alias": "korean", "title": "Korean"}, {"alias": "buffets", "title": "Buffets"}], "rating": 4.5, "coordinates": {"latitude": 47.60884, "longitude": -122.33425}, "transactions": [], "price": "$", "location": {"address1": "1301 5th Ave", "address2": "", "address3": "Concourse", "city": "Seattle", "zip_code": "98101", "country": "US", "state": "WA", "display_address": ["1301 5th Ave", "Concourse", "Seattle, WA 98101"]}, "phone": "+12068543166", "display_phone": "(206) 854-3166", "distance": 169.8776104999136}, {"id": "L8RRAd-JZ0Bd4MER0yyX-g", "alias": "japonessa-sushi-cocina-seattle", "name": "Japonessa Sushi Cocina", "image_url": "https://s3-media3.fl.yelpcdn.com/bphoto/vucCrknnlu1RRvRaKWwovQ/o.jpg", "is_closed": false, "url": "https://www.yelp.com/biz/japonessa-sushi-cocina-seattle?adjust_creative=yfMpLaf7muZFCbIJiMb75g&utm_campaign=yelp_api_v3&utm_medium=api_v3_business_search&utm_source=yfMpLaf7muZFCbIJiMb75g", "review_count": 4304, "categories": [{"alias": "japanese", "title": "Japanese"}, {"alias": "sushi", "title": "Sushi Bars"}], "rating": 4.0, "coordinates": {"latitude": 47.60809, "longitude": -122.33899}, "transactions": [], "price": "$$", "location": {"address1": "1400 1st Ave", "address2": "", "address3": "", "city": "Seattle", "zip_code": "98101", "country": "US", "state": "WA", "display_address": ["1400 1st Ave", "Seattle, WA 98101"]}, "phone": "+12069717979", "display_phone": "(206) 971-7979", "distance": 226.987250746118}, {"id": "ultF6EfzuR_S3-QJyx67rw", "alias": "ludis-seattle", "name": "Ludi's", "image_url": "https://s3-media3.fl.yelpcdn.com/bphoto/XhR9i1rc2kp4dOUdcR9X-w/o.jpg", "is_closed": false, "url": "https://www.yelp.com/biz/ludis-seattle?adjust_creative=yfMpLaf7muZFCbIJiMb75g&utm_campaign=yelp_api_v3&utm_medium=api_v3_business_search&utm_source=yfMpLaf7muZFCbIJiMb75g", "review_count": 505, "categories": [{"alias": "tradamerican", "title": "American (Traditional)"}, {"alias": "filipino", "title": "Filipino"}, {"alias": "diners", "title": "Diners"}], "rating": 4.0, "coordinates": {"latitude": 47.60964, "longitude": -122.33876}, "transactions": [], "price": "$$", "location": {"address1": "200 Pike St", "address2": "", "address3": "", "city": "Seattle", "zip_code": "98101", "country": "US", "state": "WA", "display_address": ["200 Pike St", "Seattle, WA 98101"]}, "phone": "+12066822324", "display_phone": "(206) 682-2324", "distance": 175.40239396630403}, {"id": "xqH038QcquJEMm5LIZHd5w", "alias": "elliotts-oyster-house-seattle-2", "name": "Elliott's Oyster House", "image_url": "https://s3-media3.fl.yelpcdn.com/bphoto/Am6AabmBhkHHqrGRSg2clQ/o.jpg", "is_closed": false, "url": "https://www.yelp.com/biz/elliotts-oyster-house-seattle-2?adjust_creative=yfMpLaf7muZFCbIJiMb75g&utm_campaign=yelp_api_v3&utm_medium=api_v3_business_search&utm_source=yfMpLaf7muZFCbIJiMb75g", "review_count": 3143, "categories": [{"alias": "seafood", "title": "Seafood"}], "rating": 4.0, "coordinates": {"latitude": 47.6054699, "longitude": -122.34092}, "transactions": [], "price": "$$$", "location": {"address1": "1201 Alaskan Way", "address2": "", "address3": "Pier 56", "city": "Seattle", "zip_code": "98101", "country": "US", "state": "WA", "display_address": ["1201 Alaskan Way", "Pier 56", "Seattle, WA 98101"]}, "phone": "+12066234340", "display_phone": "(206) 623-4340", "distance": 532.6983262169665}, {"id": "H4YrQnNfd7X6vGBXxRztnA", "alias": "mr-saigon-seattle-4", "name": "MR SAIGON", "image_url": "https://s3-media3.fl.yelpcdn.com/bphoto/3_ASY4Uez2iWjNS2oedKlQ/o.jpg", "is_closed": false, "url": "https://www.yelp.com/biz/mr-saigon-seattle-4?adjust_creative=yfMpLaf7muZFCbIJiMb75g&utm_campaign=yelp_api_v3&utm_medium=api_v3_business_search&utm_source=yfMpLaf7muZFCbIJiMb75g", "review_count": 47, "categories": [{"alias": "vietnamese", "title": "Vietnamese"}, {"alias": "bubbletea", "title": "Bubble Tea"}, {"alias": "sandwiches", "title": "Sandwiches"}], "rating": 4.5, "coordinates": {"latitude": 47.60948, "longitude": -122.33803}, "transactions": [], "location": {"address1": "215 Pike St", "address2": "", "address3": null, "city": "Seattle", "zip_code": "98101", "country": "US", "state": "WA", "display_address": ["215 Pike St", "Seattle, WA 98101"]}, "phone": "+12063811268", "display_phone": "(206) 381-1268", "distance": 124.15469798000451}, {"id": "1UhQEShaawEhRzBhVFy0hA", "alias": "nosh-seattle", "name": "Nosh", "image_url": "https://s3-media2.fl.yelpcdn.com/bphoto/WwrDxr0EgaVXNa79aU8SvA/o.jpg", "is_closed": false, "url": "https://www.yelp.com/biz/nosh-seattle?adjust_creative=yfMpLaf7muZFCbIJiMb75g&utm_campaign=yelp_api_v3&utm_medium=api_v3_business_search&utm_source=yfMpLaf7muZFCbIJiMb75g", "review_count": 286, "categories": [{"alias": "newamerican", "title": "American (New)"}, {"alias": "fishnchips", "title": "Fish & Chips"}, {"alias": "foodtrucks", "title": "Food Trucks"}], "rating": 4.5, "coordinates": {"latitude": 47.61125, "longitude": -122.33493}, "transactions": [], "price": "$$", "location": {"address1": null, "address2": null, "address3": "", "city": "Seattle", "zip_code": "98101", "country": "US", "state": "WA", "display_address": ["Seattle, WA 98101"]}, "phone": "+12064898712", "display_phone": "(206) 489-8712", "distance": 75.00411199524436}, {"id": "Mh5o8RtQNNUxhoJe6BxVkg", "alias": "purple-caf\u00e9-and-wine-bar-seattle-3", "name": "Purple Caf\u00e9 and Wine Bar", "image_url": "https://s3-media3.fl.yelpcdn.com/bphoto/21QxhWyYxnlHjOBKUysvYA/o.jpg", "is_closed": false, "url": "https://www.yelp.com/biz/purple-caf%C3%A9-and-wine-bar-seattle-3?adjust_creative=yfMpLaf7muZFCbIJiMb75g&utm_campaign=yelp_api_v3&utm_medium=api_v3_business_search&utm_source=yfMpLaf7muZFCbIJiMb75g", "review_count": 2233, "categories": [{"alias": "newamerican", "title": "American (New)"}, {"alias": "wine_bars", "title": "Wine Bars"}, {"alias": "desserts", "title": "Desserts"}], "rating": 4.0, "coordinates": {"latitude": 47.60795, "longitude": -122.33508}, "transactions": [], "price": "$$$", "location": {"address1": "1225 4th Ave", "address2": null, "address3": "", "city": "Seattle", "zip_code": "98101", "country": "US", "state": "WA", "display_address": ["1225 4th Ave", "Seattle, WA 98101"]}, "phone": "+12068292280", "display_phone": "(206) 829-2280", "distance": 172.29026347950872}, {"id": "ZCtSkAulGzhWd1o0oWbYgQ", "alias": "din-tai-fung-seattle-14", "name": "Din Tai Fung", "image_url": "https://s3-media1.fl.yelpcdn.com/bphoto/fKx4S50dSx145q29hgtuIA/o.jpg", "is_closed": false, "url": "https://www.yelp.com/biz/din-tai-fung-seattle-14?adjust_creative=yfMpLaf7muZFCbIJiMb75g&utm_campaign=yelp_api_v3&utm_medium=api_v3_business_search&utm_source=yfMpLaf7muZFCbIJiMb75g", "review_count": 991, "categories": [{"alias": "taiwanese", "title": "Taiwanese"}, {"alias": "shanghainese", "title": "Shanghainese"}, {"alias": "dimsum", "title": "Dim Sum"}], "rating": 4.0, "coordinates": {"latitude": 47.61289, "longitude": -122.33531}, "transactions": [], "price": "$$", "location": {"address1": "600 Pine St", "address2": "Ste 403", "address3": null, "city": "Seattle", "zip_code": "98101", "country": "US", "state": "WA", "display_address": ["600 Pine St", "Ste 403", "Seattle, WA 98101"]}, "phone": "+12066829888", "display_phone": "(206) 682-9888", "distance": 422.8152098111073}, {"id": "oq5KCmPFKV28BnB4hjpo_g", "alias": "lola-seattle", "name": "Lola", "image_url": "https://s3-media3.fl.yelpcdn.com/bphoto/vtO-PdCHCH5W3sefJRpEmw/o.jpg", "is_closed": false, "url": "https://www.yelp.com/biz/lola-seattle?adjust_creative=yfMpLaf7muZFCbIJiMb75g&utm_campaign=yelp_api_v3&utm_medium=api_v3_business_search&utm_source=yfMpLaf7muZFCbIJiMb75g", "review_count": 3649, "categories": [{"alias": "greek", "title": "Greek"}, {"alias": "mediterranean", "title": "Mediterranean"}, {"alias": "breakfast_brunch", "title": "Breakfast & Brunch"}], "rating": 4.0, "coordinates": {"latitude": 47.6132519777742, "longitude": -122.340060726984}, "transactions": [], "price": "$$", "location": {"address1": "2000 4th Ave", "address2": null, "address3": "", "city": "Seattle", "zip_code": "98121", "country": "US", "state": "WA", "display_address": ["2000 4th Ave", "Seattle, WA 98121"]}, "phone": "+12064411430", "display_phone": "(206) 441-1430", "distance": 525.9420597187803}, {"id": "jNZybBdaeAIQGP0c6mTa6Q", "alias": "seoul-bowl-seattle", "name": "Seoul Bowl", "image_url": "https://s3-media2.fl.yelpcdn.com/bphoto/MdpLDSx8ufYRU86xhRYhgg/o.jpg", "is_closed": false, "url": "https://www.yelp.com/biz/seoul-bowl-seattle?adjust_creative=yfMpLaf7muZFCbIJiMb75g&utm_campaign=yelp_api_v3&utm_medium=api_v3_business_search&utm_source=yfMpLaf7muZFCbIJiMb75g", "review_count": 39, "categories": [{"alias": "foodtrucks", "title": "Food Trucks"}, {"alias": "bbq", "title": "Barbeque"}, {"alias": "korean", "title": "Korean"}], "rating": 4.5, "coordinates": {"latitude": 47.61125, "longitude": -122.33493}, "transactions": [], "price": "$", "location": {"address1": null, "address2": null, "address3": "", "city": "Seattle", "zip_code": "98101", "country": "US", "state": "WA", "display_address": ["Seattle, WA 98101"]}, "phone": "+12532982301", "display_phone": "(253) 298-2301", "distance": 75.00411199524436}, {"id": "vHfJiTfxHdpDg2l6aT1R5g", "alias": "market-grill-seattle", "name": "Market Grill", "image_url": "https://s3-media4.fl.yelpcdn.com/bphoto/K-FfPdt3DdQsO4sDA-avhg/o.jpg", "is_closed": false, "url": "https://www.yelp.com/biz/market-grill-seattle?adjust_creative=yfMpLaf7muZFCbIJiMb75g&utm_campaign=yelp_api_v3&utm_medium=api_v3_business_search&utm_source=yfMpLaf7muZFCbIJiMb75g", "review_count": 466, "categories": [{"alias": "seafood", "title": "Seafood"}, {"alias": "sandwiches", "title": "Sandwiches"}, {"alias": "soup", "title": "Soup"}], "rating": 4.5, "coordinates": {"latitude": 47.6089070425027, "longitude": -122.340861002181}, "transactions": [], "price": "$$", "location": {"address1": "1509 Pike Pl", "address2": "Ste 3", "address3": "", "city": "Seattle", "zip_code": "98101", "country": "US", "state": "WA", "display_address": ["1509 Pike Pl", "Ste 3", "Seattle, WA 98101"]}, "phone": "+12066822654", "display_phone": "(206) 682-2654", "distance": 325.1364409963221}, {"id": "sNzOsVvZlvSO_-sXs2MMHQ", "alias": "red-cedar-and-sage-seattle", "name": "Red Cedar & Sage", "image_url": "https://s3-media4.fl.yelpcdn.com/bphoto/eZywvWa94XmhtpfgYCBzqg/o.jpg", "is_closed": false, "url": "https://www.yelp.com/biz/red-cedar-and-sage-seattle?adjust_creative=yfMpLaf7muZFCbIJiMb75g&utm_campaign=yelp_api_v3&utm_medium=api_v3_business_search&utm_source=yfMpLaf7muZFCbIJiMb75g", "review_count": 340, "categories": [{"alias": "newamerican", "title": "American (New)"}, {"alias": "breakfast_brunch", "title": "Breakfast & Brunch"}, {"alias": "cocktailbars", "title": "Cocktail Bars"}], "rating": 4.0, "coordinates": {"latitude": 47.60871, "longitude": -122.34105}, "transactions": ["delivery", "pickup", "restaurant_reservation"], "price": "$$", "location": {"address1": "1501 Pike Pl", "address2": "Ste 200", "address3": "", "city": "Seattle", "zip_code": "98101", "country": "US", "state": "WA", "display_address": ["1501 Pike Pl", "Ste 200", "Seattle, WA 98101"]}, "phone": "+12065380377", "display_phone": "(206) 538-0377", "distance": 320.14721200307724}, {"id": "uHsLwMmgNXimHu1yz3htkg", "alias": "ben-paris-seattle", "name": "Ben Paris", "image_url": "https://s3-media3.fl.yelpcdn.com/bphoto/fB3c21Z06pgjKNL9_Lr5GQ/o.jpg", "is_closed": false, "url": "https://www.yelp.com/biz/ben-paris-seattle?adjust_creative=yfMpLaf7muZFCbIJiMb75g&utm_campaign=yelp_api_v3&utm_medium=api_v3_business_search&utm_source=yfMpLaf7muZFCbIJiMb75g", "review_count": 6, "categories": [{"alias": "newamerican", "title": "American (New)"}, {"alias": "cocktailbars", "title": "Cocktail Bars"}], "rating": 4.5, "coordinates": {"latitude": 47.6093841, "longitude": -122.3392902}, "transactions": [], "location": {"address1": "130 Pike St", "address2": "", "address3": "", "city": "Seattle", "zip_code": "98101", "country": "US", "state": "WA", "display_address": ["130 Pike St", "Seattle, WA 98101"]}, "phone": "+18008273900", "display_phone": "(800) 827-3900", "distance": 207.64609282317775}, {"id": "uoObq-i_zB3sqTUdsm5oDQ", "alias": "hot-as-pho-seattle-2", "name": "Hot As Pho", "image_url": "https://s3-media1.fl.yelpcdn.com/bphoto/7PzoY3w0DxWLBzAcTZCZ9g/o.jpg", "is_closed": false, "url": "https://www.yelp.com/biz/hot-as-pho-seattle-2?adjust_creative=yfMpLaf7muZFCbIJiMb75g&utm_campaign=yelp_api_v3&utm_medium=api_v3_business_search&utm_source=yfMpLaf7muZFCbIJiMb75g", "review_count": 106, "categories": [{"alias": "vietnamese", "title": "Vietnamese"}], "rating": 4.0, "coordinates": {"latitude": 47.60887, "longitude": -122.33817}, "transactions": [], "price": "$", "location": {"address1": "1414 2nd Ave", "address2": "", "address3": null, "city": "Seattle", "zip_code": "98101", "country": "US", "state": "WA", "display_address": ["1414 2nd Ave", "Seattle, WA 98101"]}, "phone": "+12067489934", "display_phone": "(206) 748-9934", "distance": 124.23111662735774}, {"id": "CQRJ0fwKGsJfXxXFNY9F0g", "alias": "sweet-iron-waffles-seattle-5", "name": "Sweet Iron Waffles", "image_url": "https://s3-media1.fl.yelpcdn.com/bphoto/78R2Gv7O0bRkZj8ISb-QZA/o.jpg", "is_closed": false, "url": "https://www.yelp.com/biz/sweet-iron-waffles-seattle-5?adjust_creative=yfMpLaf7muZFCbIJiMb75g&utm_campaign=yelp_api_v3&utm_medium=api_v3_business_search&utm_source=yfMpLaf7muZFCbIJiMb75g", "review_count": 1276, "categories": [{"alias": "breakfast_brunch", "title": "Breakfast & Brunch"}, {"alias": "waffles", "title": "Waffles"}, {"alias": "coffee", "title": "Coffee & Tea"}], "rating": 4.0, "coordinates": {"latitude": 47.60741, "longitude": -122.33519}, "transactions": ["pickup"], "price": "$", "location": {"address1": "1200 Third Ave", "address2": "", "address3": "", "city": "Seattle", "zip_code": "98101", "country": "US", "state": "WA", "display_address": ["1200 Third Ave", "Seattle, WA 98101"]}, "phone": "+12066823336", "display_phone": "(206) 682-3336", "distance": 218.3958278506403}, {"id": "0SShWqXD6ta6PNttsAj_BQ", "alias": "lecosho-seattle-6", "name": "Lecosho", "image_url": "https://s3-media1.fl.yelpcdn.com/bphoto/hq_DcCJYzO81Uo-5cwX6bw/o.jpg", "is_closed": false, "url": "https://www.yelp.com/biz/lecosho-seattle-6?adjust_creative=yfMpLaf7muZFCbIJiMb75g&utm_campaign=yelp_api_v3&utm_medium=api_v3_business_search&utm_source=yfMpLaf7muZFCbIJiMb75g", "review_count": 779, "categories": [{"alias": "newamerican", "title": "American (New)"}, {"alias": "bars", "title": "Bars"}, {"alias": "seafood", "title": "Seafood"}], "rating": 4.0, "coordinates": {"latitude": 47.606474929346, "longitude": -122.3387322711}, "transactions": [], "price": "$$", "location": {"address1": "89 University St", "address2": "", "address3": "", "city": "Seattle", "zip_code": "98101", "country": "US", "state": "WA", "display_address": ["89 University St", "Seattle, WA 98101"]}, "phone": "+12066232101", "display_phone": "(206) 623-2101", "distance": 340.8639511325554}, {"id": "bBDeZ3QkljIbPPeQ__Xq-w", "alias": "noi-thai-cuisine-seattle-3", "name": "Noi Thai Cuisine", "image_url": "https://s3-media4.fl.yelpcdn.com/bphoto/b9bGi5ewoDQDbRnUllg6pw/o.jpg", "is_closed": false, "url": "https://www.yelp.com/biz/noi-thai-cuisine-seattle-3?adjust_creative=yfMpLaf7muZFCbIJiMb75g&utm_campaign=yelp_api_v3&utm_medium=api_v3_business_search&utm_source=yfMpLaf7muZFCbIJiMb75g", "review_count": 548, "categories": [{"alias": "thai", "title": "Thai"}], "rating": 4.0, "coordinates": {"latitude": 47.606881, "longitude": -122.3389654}, "transactions": ["delivery", "pickup"], "price": "$$", "location": {"address1": "1303 1st Ave", "address2": "", "address3": "Harbor Steps Building", "city": "Seattle", "zip_code": "98101", "country": "US", "state": "WA", "display_address": ["1303 1st Ave", "Harbor Steps Building", "Seattle, WA 98101"]}, "phone": "+12067878444", "display_phone": "(206) 787-8444", "distance": 311.9420521597111}, {"id": "-FOAQv22SXtSBs7nptI3UA", "alias": "serious-pie-seattle", "name": "Serious Pie", "image_url": "https://s3-media3.fl.yelpcdn.com/bphoto/K5cPEhf5ZLkujN73bBNleQ/o.jpg", "is_closed": false, "url": "https://www.yelp.com/biz/serious-pie-seattle?adjust_creative=yfMpLaf7muZFCbIJiMb75g&utm_campaign=yelp_api_v3&utm_medium=api_v3_business_search&utm_source=yfMpLaf7muZFCbIJiMb75g", "review_count": 3895, "categories": [{"alias": "pizza", "title": "Pizza"}], "rating": 4.0, "coordinates": {"latitude": 47.61296, "longitude": -122.34047}, "transactions": [], "price": "$$", "location": {"address1": "316 Virginia St", "address2": null, "address3": "", "city": "Seattle", "zip_code": "98121", "country": "US", "state": "WA", "display_address": ["316 Virginia St", "Seattle, WA 98121"]}, "phone": "+12068387388", "display_phone": "(206) 838-7388", "distance": 514.0984926099997}, {"id": "8Xb8xruotfuSmCGBAnLl8A", "alias": "james-moore-bar-and-kitchen-seattle", "name": "James Moore Bar & Kitchen", "image_url": "https://s3-media2.fl.yelpcdn.com/bphoto/FhhpuKm3JvPDL5zGHmAbhw/o.jpg", "is_closed": false, "url": "https://www.yelp.com/biz/james-moore-bar-and-kitchen-seattle?adjust_creative=yfMpLaf7muZFCbIJiMb75g&utm_campaign=yelp_api_v3&utm_medium=api_v3_business_search&utm_source=yfMpLaf7muZFCbIJiMb75g", "review_count": 62, "categories": [{"alias": "newamerican", "title": "American (New)"}, {"alias": "cocktailbars", "title": "Cocktail Bars"}], "rating": 4.5, "coordinates": {"latitude": 47.6115387377139, "longitude": -122.340997868601}, "transactions": [], "price": "$$", "location": {"address1": "1920 2nd Ave", "address2": "Ste A", "address3": "", "city": "Seattle", "zip_code": "98101", "country": "US", "state": "WA", "display_address": ["1920 2nd Ave", "Ste A", "Seattle, WA 98101"]}, "phone": "+12064430899", "display_phone": "(206) 443-0899", "distance": 426.1344277642758}, {"id": "I6GRfKx8vjlyQcHGE-z8vw", "alias": "rn74-seattle", "name": "RN74", "image_url": "https://s3-media2.fl.yelpcdn.com/bphoto/JM67GC-jxudbcf_YbfTjFQ/o.jpg", "is_closed": false, "url": "https://www.yelp.com/biz/rn74-seattle?adjust_creative=yfMpLaf7muZFCbIJiMb75g&utm_campaign=yelp_api_v3&utm_medium=api_v3_business_search&utm_source=yfMpLaf7muZFCbIJiMb75g", "review_count": 1016, "categories": [{"alias": "newamerican", "title": "American (New)"}, {"alias": "french", "title": "French"}, {"alias": "wine_bars", "title": "Wine Bars"}], "rating": 4.0, "coordinates": {"latitude": 47.60997, "longitude": -122.33681}, "transactions": [], "price": "$$$", "location": {"address1": "1433 4th Ave", "address2": "", "address3": "", "city": "Seattle", "zip_code": "98101", "country": "US", "state": "WA", "display_address": ["1433 4th Ave", "Seattle, WA 98101"]}, "phone": "+12064567474", "display_phone": "(206) 456-7474", "distance": 95.93831453356408}, {"id": "LwsjLSWvoo8fC_wL-DdcVQ", "alias": "spin-seattle-seattle", "name": "SPIN Seattle", "image_url": "https://s3-media3.fl.yelpcdn.com/bphoto/cDcT2A_fTMeXvOBJLfI6Tw/o.jpg", "is_closed": false, "url": "https://www.yelp.com/biz/spin-seattle-seattle?adjust_creative=yfMpLaf7muZFCbIJiMb75g&utm_campaign=yelp_api_v3&utm_medium=api_v3_business_search&utm_source=yfMpLaf7muZFCbIJiMb75g", "review_count": 111, "categories": [{"alias": "sports_clubs", "title": "Sports Clubs"}, {"alias": "tradamerican", "title": "American (Traditional)"}, {"alias": "cocktailbars", "title": "Cocktail Bars"}], "rating": 4.0, "coordinates": {"latitude": 47.61157, "longitude": -122.3353}, "transactions": [], "price": "$$", "location": {"address1": "1511 6th Ave", "address2": "", "address3": null, "city": "Seattle", "zip_code": "98101", "country": "US", "state": "WA", "display_address": ["1511 6th Ave", "Seattle, WA 98101"]}, "phone": "+12066863593", "display_phone": "(206) 686-3593", "distance": 289.24195591246996}, {"id": "9GzjKeifGJ6KzWkaPftYHg", "alias": "loulay-kitchen-and-bar-seattle", "name": "Loulay Kitchen & Bar", "image_url": "https://s3-media1.fl.yelpcdn.com/bphoto/vwqAoYQaH5lyw5_ZNDtS8w/o.jpg", "is_closed": false, "url": "https://www.yelp.com/biz/loulay-kitchen-and-bar-seattle?adjust_creative=yfMpLaf7muZFCbIJiMb75g&utm_campaign=yelp_api_v3&utm_medium=api_v3_business_search&utm_source=yfMpLaf7muZFCbIJiMb75g", "review_count": 577, "categories": [{"alias": "french", "title": "French"}, {"alias": "bars", "title": "Bars"}], "rating": 4.0, "coordinates": {"latitude": 47.61085, "longitude": -122.33318}, "transactions": [], "price": "$$", "location": {"address1": "600 Union St", "address2": "", "address3": "", "city": "Seattle", "zip_code": "98101", "country": "US", "state": "WA", "display_address": ["600 Union St", "Seattle, WA 98101"]}, "phone": "+12064024588", "display_phone": "(206) 402-4588", "distance": 263.90391979388556}, {"id": "IQHdw04Ymy7JrlDLIBcrhA", "alias": "pike-place-chowder-seattle-4", "name": "Pike Place Chowder", "image_url": "https://s3-media1.fl.yelpcdn.com/bphoto/qKZhApTt6j7NXHts68tiPg/o.jpg", "is_closed": false, "url": "https://www.yelp.com/biz/pike-place-chowder-seattle-4?adjust_creative=yfMpLaf7muZFCbIJiMb75g&utm_campaign=yelp_api_v3&utm_medium=api_v3_business_search&utm_source=yfMpLaf7muZFCbIJiMb75g", "review_count": 975, "categories": [{"alias": "seafood", "title": "Seafood"}, {"alias": "soup", "title": "Soup"}, {"alias": "tradamerican", "title": "American (Traditional)"}], "rating": 4.0, "coordinates": {"latitude": 47.6124848522455, "longitude": -122.33503818512}, "transactions": ["delivery", "pickup"], "price": "$$", "location": {"address1": "600 Pine St", "address2": "Fl 4", "address3": "", "city": "Seattle", "zip_code": "98101", "country": "US", "state": "WA", "display_address": ["600 Pine St", "Fl 4", "Seattle, WA 98101"]}, "phone": "+12068385680", "display_phone": "(206) 838-5680", "distance": 386.40631692875155}, {"id": "htb8QkPaAbb-XZSqeZLHkw", "alias": "long-provincial-vietnamese-seattle", "name": "Long Provincial Vietnamese", "image_url": "https://s3-media2.fl.yelpcdn.com/bphoto/iHM5D9B88fq1LDsScl5OZw/o.jpg", "is_closed": false, "url": "https://www.yelp.com/biz/long-provincial-vietnamese-seattle?adjust_creative=yfMpLaf7muZFCbIJiMb75g&utm_campaign=yelp_api_v3&utm_medium=api_v3_business_search&utm_source=yfMpLaf7muZFCbIJiMb75g", "review_count": 928, "categories": [{"alias": "vietnamese", "title": "Vietnamese"}], "rating": 4.0, "coordinates": {"latitude": 47.61096, "longitude": -122.34081}, "transactions": [], "price": "$$", "location": {"address1": "1901 2nd Ave", "address2": "", "address3": "", "city": "Seattle", "zip_code": "98101", "country": "US", "state": "WA", "display_address": ["1901 2nd Ave", "Seattle, WA 98101"]}, "phone": "+12064436266", "display_phone": "(206) 443-6266", "distance": 372.5285128373956}, {"id": "IHdYRhn5w3hpr3DklbUqqw", "alias": "gyro-stop-mediterranean-grill-seattle", "name": "Gyro Stop Mediterranean Grill", "image_url": "https://s3-media4.fl.yelpcdn.com/bphoto/2O_rHpke54-BOmxheJ2Kaw/o.jpg", "is_closed": false, "url": "https://www.yelp.com/biz/gyro-stop-mediterranean-grill-seattle?adjust_creative=yfMpLaf7muZFCbIJiMb75g&utm_campaign=yelp_api_v3&utm_medium=api_v3_business_search&utm_source=yfMpLaf7muZFCbIJiMb75g", "review_count": 77, "categories": [{"alias": "mediterranean", "title": "Mediterranean"}], "rating": 4.0, "coordinates": {"latitude": 47.6094099, "longitude": -122.3379}, "transactions": ["delivery", "pickup"], "price": "$", "location": {"address1": "1431 3rd Ave", "address2": "", "address3": "", "city": "Seattle", "zip_code": "98101", "country": "US", "state": "WA", "display_address": ["1431 3rd Ave", "Seattle, WA 98101"]}, "phone": "+12066234477", "display_phone": "(206) 623-4477", "distance": 100.62066045887823}, {"id": "z3B84RJM47aCnfZ69ai8cA", "alias": "the-capital-grille-seattle", "name": "The Capital Grille", "image_url": "https://s3-media2.fl.yelpcdn.com/bphoto/NK0fvTJ53LKZBimp0KUv3w/o.jpg", "is_closed": false, "url": "https://www.yelp.com/biz/the-capital-grille-seattle?adjust_creative=yfMpLaf7muZFCbIJiMb75g&utm_campaign=yelp_api_v3&utm_medium=api_v3_business_search&utm_source=yfMpLaf7muZFCbIJiMb75g", "review_count": 829, "categories": [{"alias": "steak", "title": "Steakhouses"}, {"alias": "seafood", "title": "Seafood"}, {"alias": "wine_bars", "title": "Wine Bars"}], "rating": 4.0, "coordinates": {"latitude": 47.60826, "longitude": -122.33538}, "transactions": [], "price": "$$$", "location": {"address1": "1301 4th Ave", "address2": "", "address3": "", "city": "Seattle", "zip_code": "98101", "country": "US", "state": "WA", "display_address": ["1301 4th Ave", "Seattle, WA 98101"]}, "phone": "+12063820900", "display_phone": "(206) 382-0900", "distance": 140.46283525174726}, {"id": "gfSOa5szslnRgBmaiqrQ6g", "alias": "the-brooklyn-seafood-steak-and-oyster-house-seattle", "name": "The Brooklyn Seafood, Steak & Oyster House", "image_url": "https://s3-media3.fl.yelpcdn.com/bphoto/-7bZOyCYjtB-Xf8ME8AW_A/o.jpg", "is_closed": false, "url": "https://www.yelp.com/biz/the-brooklyn-seafood-steak-and-oyster-house-seattle?adjust_creative=yfMpLaf7muZFCbIJiMb75g&utm_campaign=yelp_api_v3&utm_medium=api_v3_business_search&utm_source=yfMpLaf7muZFCbIJiMb75g", "review_count": 1050, "categories": [{"alias": "seafood", "title": "Seafood"}, {"alias": "steak", "title": "Steakhouses"}, {"alias": "raw_food", "title": "Live/Raw Food"}], "rating": 4.0, "coordinates": {"latitude": 47.6071761944115, "longitude": -122.336951661377}, "transactions": [], "price": "$$$", "location": {"address1": "1212 2nd Ave", "address2": "", "address3": "", "city": "Seattle", "zip_code": "98101", "country": "US", "state": "WA", "display_address": ["1212 2nd Ave", "Seattle, WA 98101"]}, "phone": "+12062247000", "display_phone": "(206) 224-7000", "distance": 222.803430891005}, {"id": "pFjKbQE5ildUhScdJyvBHg", "alias": "heartwood-provisions-seattle-3", "name": "Heartwood Provisions", "image_url": "https://s3-media2.fl.yelpcdn.com/bphoto/JDNCKFzbrkhIDqp0OVCHFw/o.jpg", "is_closed": false, "url": "https://www.yelp.com/biz/heartwood-provisions-seattle-3?adjust_creative=yfMpLaf7muZFCbIJiMb75g&utm_campaign=yelp_api_v3&utm_medium=api_v3_business_search&utm_source=yfMpLaf7muZFCbIJiMb75g", "review_count": 526, "categories": [{"alias": "newamerican", "title": "American (New)"}, {"alias": "desserts", "title": "Desserts"}, {"alias": "breakfast_brunch", "title": "Breakfast & Brunch"}], "rating": 4.5, "coordinates": {"latitude": 47.6054687, "longitude": -122.3369829}, "transactions": [], "price": "$$$", "location": {"address1": "1103 1st Ave", "address2": null, "address3": "", "city": "Seattle", "zip_code": "98101", "country": "US", "state": "WA", "display_address": ["1103 1st Ave", "Seattle, WA 98101"]}, "phone": "+12065823505", "display_phone": "(206) 582-3505", "distance": 411.86182359705407}, {"id": "2fHYJVNJKBm9Qdr7o_ykGg", "alias": "harbor-caf\u00e9-seattle-2", "name": "Harbor Caf\u00e9", "image_url": "https://s3-media4.fl.yelpcdn.com/bphoto/ixyMs5PepqKp9v6CYjsvjg/o.jpg", "is_closed": false, "url": "https://www.yelp.com/biz/harbor-caf%C3%A9-seattle-2?adjust_creative=yfMpLaf7muZFCbIJiMb75g&utm_campaign=yelp_api_v3&utm_medium=api_v3_business_search&utm_source=yfMpLaf7muZFCbIJiMb75g", "review_count": 129, "categories": [{"alias": "thai", "title": "Thai"}, {"alias": "asianfusion", "title": "Asian Fusion"}, {"alias": "cafes", "title": "Cafes"}], "rating": 4.0, "coordinates": {"latitude": 47.6094036086078, "longitude": -122.336325645447}, "transactions": [], "price": "$", "location": {"address1": "1411 4th Ave", "address2": "", "address3": "", "city": "Seattle", "zip_code": "98101", "country": "US", "state": "WA", "display_address": ["1411 4th Ave", "Seattle, WA 98101"]}, "phone": "+12063409908", "display_phone": "(206) 340-9908", "distance": 31.44473114990848}, {"id": "Lw7NmZ3j-WEye97ywEmkXQ", "alias": "vons-1000-spirits-seattle-4", "name": "Von's 1000 Spirits", "image_url": "https://s3-media2.fl.yelpcdn.com/bphoto/ClVy0w7zsSIPkrFAKCxSqA/o.jpg", "is_closed": false, "url": "https://www.yelp.com/biz/vons-1000-spirits-seattle-4?adjust_creative=yfMpLaf7muZFCbIJiMb75g&utm_campaign=yelp_api_v3&utm_medium=api_v3_business_search&utm_source=yfMpLaf7muZFCbIJiMb75g", "review_count": 1192, "categories": [{"alias": "newamerican", "title": "American (New)"}, {"alias": "pizza", "title": "Pizza"}, {"alias": "venues", "title": "Venues & Event Spaces"}], "rating": 4.0, "coordinates": {"latitude": 47.606565, "longitude": -122.338337}, "transactions": ["pickup", "restaurant_reservation"], "price": "$$", "location": {"address1": "1225 1st Ave", "address2": "", "address3": "", "city": "Seattle", "zip_code": "98101", "country": "US", "state": "WA", "display_address": ["1225 1st Ave", "Seattle, WA 98101"]}, "phone": "+12066218667", "display_phone": "(206) 621-8667", "distance": 318.5050905436553}, {"id": "vlz27XvIB1eQ-r-qfBcuWw", "alias": "veggie-grill-seattle-6", "name": "Veggie Grill", "image_url": "https://s3-media1.fl.yelpcdn.com/bphoto/h6y8iL1o5_7PZG4EC0du0A/o.jpg", "is_closed": false, "url": "https://www.yelp.com/biz/veggie-grill-seattle-6?adjust_creative=yfMpLaf7muZFCbIJiMb75g&utm_campaign=yelp_api_v3&utm_medium=api_v3_business_search&utm_source=yfMpLaf7muZFCbIJiMb75g", "review_count": 492, "categories": [{"alias": "newamerican", "title": "American (New)"}, {"alias": "vegan", "title": "Vegan"}, {"alias": "vegetarian", "title": "Vegetarian"}], "rating": 4.5, "coordinates": {"latitude": 47.6098539, "longitude": -122.3365793}, "transactions": ["delivery", "pickup"], "price": "$$", "location": {"address1": "1427 4th Ave", "address2": "", "address3": "", "city": "Seattle", "zip_code": "98101", "country": "US", "state": "WA", "display_address": ["1427 4th Ave", "Seattle, WA 98101"]}, "phone": "+12066241332", "display_phone": "(206) 624-1332", "distance": 77.14450746085343}, {"id": "1MPANypfo13kepMxUEfJ1A", "alias": "el-borracho-seattle", "name": "El Borracho", "image_url": "https://s3-media3.fl.yelpcdn.com/bphoto/LFo_pxrIEmbVhkKSzZ0jiA/o.jpg", "is_closed": false, "url": "https://www.yelp.com/biz/el-borracho-seattle?adjust_creative=yfMpLaf7muZFCbIJiMb75g&utm_campaign=yelp_api_v3&utm_medium=api_v3_business_search&utm_source=yfMpLaf7muZFCbIJiMb75g", "review_count": 743, "categories": [{"alias": "mexican", "title": "Mexican"}], "rating": 3.5, "coordinates": {"latitude": 47.60934, "longitude": -122.34076}, "transactions": [], "price": "$$", "location": {"address1": "1521 1st Ave", "address2": "", "address3": "", "city": "Seattle", "zip_code": "98101", "country": "US", "state": "WA", "display_address": ["1521 1st Ave", "Seattle, WA 98101"]}, "phone": "+12065380440", "display_phone": "(206) 538-0440", "distance": 313.5051829752095}, {"id": "HCDVm4sFHTIgJMM88WsatA", "alias": "outlier-seattle", "name": "Outlier", "image_url": "https://s3-media1.fl.yelpcdn.com/bphoto/YaFp9CDkh2iFHiLWgxxDrQ/o.jpg", "is_closed": false, "url": "https://www.yelp.com/biz/outlier-seattle?adjust_creative=yfMpLaf7muZFCbIJiMb75g&utm_campaign=yelp_api_v3&utm_medium=api_v3_business_search&utm_source=yfMpLaf7muZFCbIJiMb75g", "review_count": 164, "categories": [{"alias": "newamerican", "title": "American (New)"}, {"alias": "bars", "title": "Bars"}, {"alias": "tapasmallplates", "title": "Tapas/Small Plates"}], "rating": 3.5, "coordinates": {"latitude": 47.60695, "longitude": -122.33414}, "transactions": [], "price": "$$", "location": {"address1": "1101 4th Ave", "address2": "", "address3": null, "city": "Seattle", "zip_code": "98101", "country": "US", "state": "WA", "display_address": ["1101 4th Ave", "Seattle, WA 98101"]}, "phone": "+12066247755", "display_phone": "(206) 624-7755", "distance": 306.6677374697854}, {"id": "bB9mbLCKSvXltK8za8nK0A", "alias": "matts-in-the-market-seattle", "name": "Matts in the Market", "image_url": "https://s3-media3.fl.yelpcdn.com/bphoto/6cnJUwXtwire0DKlsrTTTQ/o.jpg", "is_closed": false, "url": "https://www.yelp.com/biz/matts-in-the-market-seattle?adjust_creative=yfMpLaf7muZFCbIJiMb75g&utm_campaign=yelp_api_v3&utm_medium=api_v3_business_search&utm_source=yfMpLaf7muZFCbIJiMb75g", "review_count": 932, "categories": [{"alias": "newamerican", "title": "American (New)"}], "rating": 4.0, "coordinates": {"latitude": 47.60888, "longitude": -122.34036}, "transactions": [], "price": "$$$", "location": {"address1": "94 Pike St", "address2": "Ste 32", "address3": "", "city": "Seattle", "zip_code": "98101", "country": "US", "state": "WA", "display_address": ["94 Pike St", "Ste 32", "Seattle, WA 98101"]}, "phone": "+12064677909", "display_phone": "(206) 467-7909", "distance": 290.65358499354414}, {"id": "lOFGPjRTtcygTxGAYqMQ2g", "alias": "this-life-cafe-by-marc-blackwell-seattle", "name": "This Life Cafe by Marc Blackwell", "image_url": "https://s3-media2.fl.yelpcdn.com/bphoto/BSrgH_z__yPrbWHrLBLTfw/o.jpg", "is_closed": false, "url": "https://www.yelp.com/biz/this-life-cafe-by-marc-blackwell-seattle?adjust_creative=yfMpLaf7muZFCbIJiMb75g&utm_campaign=yelp_api_v3&utm_medium=api_v3_business_search&utm_source=yfMpLaf7muZFCbIJiMb75g", "review_count": 27, "categories": [{"alias": "interiordesign", "title": "Interior Design"}, {"alias": "wine_bars", "title": "Wine Bars"}, {"alias": "cafes", "title": "Cafes"}], "rating": 5.0, "coordinates": {"latitude": 47.61354, "longitude": -122.33967}, "transactions": [], "location": {"address1": "420 Virginia St", "address2": null, "address3": "", "city": "Seattle", "zip_code": "98101", "country": "US", "state": "WA", "display_address": ["420 Virginia St", "Seattle, WA 98101"]}, "phone": "+12069003261", "display_phone": "(206) 900-3261", "distance": 542.8534445541521}, {"id": "qizc9flTWmpxLFey-1BLUg", "alias": "cortina-seattle-3", "name": "Cortina", "image_url": "https://s3-media4.fl.yelpcdn.com/bphoto/JmzU5LELJYwzjEhKIWG13g/o.jpg", "is_closed": false, "url": "https://www.yelp.com/biz/cortina-seattle-3?adjust_creative=yfMpLaf7muZFCbIJiMb75g&utm_campaign=yelp_api_v3&utm_medium=api_v3_business_search&utm_source=yfMpLaf7muZFCbIJiMb75g", "review_count": 92, "categories": [{"alias": "italian", "title": "Italian"}], "rating": 4.0, "coordinates": {"latitude": 47.6104600592225, "longitude": -122.332679320966}, "transactions": [], "price": "$$$", "location": {"address1": "621 Union St", "address2": "", "address3": null, "city": "Seattle", "zip_code": "98101", "country": "US", "state": "WA", "display_address": ["621 Union St", "Seattle, WA 98101"]}, "phone": "+12067367888", "display_phone": "(206) 736-7888", "distance": 323.49401292350683}, {"id": "A_Qxu5oMm2FxS8jtkAnXWw", "alias": "the-crab-pot-seattle-2", "name": "The Crab Pot", "image_url": "https://s3-media3.fl.yelpcdn.com/bphoto/QcWohCi_l4SEltLoFewM7g/o.jpg", "is_closed": false, "url": "https://www.yelp.com/biz/the-crab-pot-seattle-2?adjust_creative=yfMpLaf7muZFCbIJiMb75g&utm_campaign=yelp_api_v3&utm_medium=api_v3_business_search&utm_source=yfMpLaf7muZFCbIJiMb75g", "review_count": 2048, "categories": [{"alias": "seafood", "title": "Seafood"}], "rating": 3.0, "coordinates": {"latitude": 47.606062903242, "longitude": -122.340865619481}, "transactions": [], "price": "$$$", "location": {"address1": "1301 Alaskan Way", "address2": "", "address3": "Pier 57", "city": "Seattle", "zip_code": "98101", "country": "US", "state": "WA", "display_address": ["1301 Alaskan Way", "Pier 57", "Seattle, WA 98101"]}, "phone": "+12066241890", "display_phone": "(206) 624-1890", "distance": 473.06945945670856}, {"id": "r2VHe6U8rfqo9xUFHLwwkg", "alias": "habitant-at-nordstrom-seattle", "name": "Habitant at Nordstrom", "image_url": "https://s3-media1.fl.yelpcdn.com/bphoto/X4mTOYvfxo9AZFZKDPDgGA/o.jpg", "is_closed": false, "url": "https://www.yelp.com/biz/habitant-at-nordstrom-seattle?adjust_creative=yfMpLaf7muZFCbIJiMb75g&utm_campaign=yelp_api_v3&utm_medium=api_v3_business_search&utm_source=yfMpLaf7muZFCbIJiMb75g", "review_count": 45, "categories": [{"alias": "tapasmallplates", "title": "Tapas/Small Plates"}, {"alias": "cocktailbars", "title": "Cocktail Bars"}], "rating": 4.5, "coordinates": {"latitude": 47.61229, "longitude": -122.33628}, "transactions": [], "price": "$$", "location": {"address1": "500 Pine St", "address2": "", "address3": null, "city": "Seattle", "zip_code": "98101", "country": "US", "state": "WA", "display_address": ["500 Pine St", "Seattle, WA 98101"]}, "phone": "+12066281635", "display_phone": "(206) 628-1635", "distance": 364.6865156049328}, {"id": "ElzS9k2liA5twi25T2XSXQ", "alias": "shuckers-oyster-bar-seattle", "name": "Shuckers Oyster Bar", "image_url": "https://s3-media2.fl.yelpcdn.com/bphoto/F6r35IVtoLiwq3K1K1J_uw/o.jpg", "is_closed": false, "url": "https://www.yelp.com/biz/shuckers-oyster-bar-seattle?adjust_creative=yfMpLaf7muZFCbIJiMb75g&utm_campaign=yelp_api_v3&utm_medium=api_v3_business_search&utm_source=yfMpLaf7muZFCbIJiMb75g", "review_count": 460, "categories": [{"alias": "newamerican", "title": "American (New)"}, {"alias": "seafood", "title": "Seafood"}, {"alias": "raw_food", "title": "Live/Raw Food"}], "rating": 4.0, "coordinates": {"latitude": 47.607681597618, "longitude": -122.334140238098}, "transactions": [], "price": "$$$", "location": {"address1": "411 University Street", "address2": "", "address3": "", "city": "Seattle", "zip_code": "98101", "country": "US", "state": "WA", "display_address": ["411 University Street", "Seattle, WA 98101"]}, "phone": "+12066211984", "display_phone": "(206) 621-1984", "distance": 243.7580476251826}, {"id": "EQHHYlJhWa7zs2Tkmx_s5A", "alias": "jarrbar-seattle", "name": "JarrBar", "image_url": "https://s3-media3.fl.yelpcdn.com/bphoto/YHXwLnQsK6YkPb-W4JmQ5A/o.jpg", "is_closed": false, "url": "https://www.yelp.com/biz/jarrbar-seattle?adjust_creative=yfMpLaf7muZFCbIJiMb75g&utm_campaign=yelp_api_v3&utm_medium=api_v3_business_search&utm_source=yfMpLaf7muZFCbIJiMb75g", "review_count": 90, "categories": [{"alias": "cocktailbars", "title": "Cocktail Bars"}, {"alias": "spanish", "title": "Spanish"}, {"alias": "portuguese", "title": "Portuguese"}], "rating": 4.5, "coordinates": {"latitude": 47.60825, "longitude": -122.34073}, "transactions": [], "price": "$$", "location": {"address1": "1432 Western Ave", "address2": "", "address3": "", "city": "Seattle", "zip_code": "98101", "country": "US", "state": "WA", "display_address": ["1432 Western Ave", "Seattle, WA 98101"]}, "phone": "+12062092239", "display_phone": "(206) 209-2239", "distance": 338.9308761615152}, {"id": "aX2ctpgS9uvFDfdzCXjecA", "alias": "the-crumpet-shop-seattle", "name": "The Crumpet Shop", "image_url": "https://s3-media3.fl.yelpcdn.com/bphoto/cDUuF_6_sjSO65Yd1vQcPA/o.jpg", "is_closed": false, "url": "https://www.yelp.com/biz/the-crumpet-shop-seattle?adjust_creative=yfMpLaf7muZFCbIJiMb75g&utm_campaign=yelp_api_v3&utm_medium=api_v3_business_search&utm_source=yfMpLaf7muZFCbIJiMb75g", "review_count": 2149, "categories": [{"alias": "bakeries", "title": "Bakeries"}, {"alias": "coffee", "title": "Coffee & Tea"}, {"alias": "breakfast_brunch", "title": "Breakfast & Brunch"}], "rating": 4.5, "coordinates": {"latitude": 47.60899, "longitude": -122.34044}, "transactions": [], "price": "$", "location": {"address1": "1503 1st Ave", "address2": "", "address3": "", "city": "Seattle", "zip_code": "98101", "country": "US", "state": "WA", "display_address": ["1503 1st Ave", "Seattle, WA 98101"]}, "phone": "+12066821598", "display_phone": "(206) 682-1598", "distance": 297.95308551941747}, {"id": "PkI2z4M1SgPkgVOMuHtuCg", "alias": "wild-ginger-seattle", "name": "Wild Ginger", "image_url": "https://s3-media1.fl.yelpcdn.com/bphoto/_96Dw17OHQfzuz2phxFzYw/o.jpg", "is_closed": false, "url": "https://www.yelp.com/biz/wild-ginger-seattle?adjust_creative=yfMpLaf7muZFCbIJiMb75g&utm_campaign=yelp_api_v3&utm_medium=api_v3_business_search&utm_source=yfMpLaf7muZFCbIJiMb75g", "review_count": 1472, "categories": [{"alias": "thai", "title": "Thai"}, {"alias": "panasian", "title": "Pan Asian"}, {"alias": "wine_bars", "title": "Wine Bars"}], "rating": 3.5, "coordinates": {"latitude": 47.608831, "longitude": -122.337421}, "transactions": ["delivery", "pickup"], "price": "$$", "location": {"address1": "1401 3rd Ave", "address2": "", "address3": "", "city": "Seattle", "zip_code": "98101", "country": "US", "state": "WA", "display_address": ["1401 3rd Ave", "Seattle, WA 98101"]}, "phone": "+12066234450", "display_phone": "(206) 623-4450", "distance": 75.51915461343123}, {"id": "alMMoNJqZNEsUmO402aNFw", "alias": "steak-n-shake-seattle", "name": "Steak \u2019n Shake", "image_url": "https://s3-media4.fl.yelpcdn.com/bphoto/0Tm_lGD3JIt13ck5s9wY8w/o.jpg", "is_closed": false, "url": "https://www.yelp.com/biz/steak-n-shake-seattle?adjust_creative=yfMpLaf7muZFCbIJiMb75g&utm_campaign=yelp_api_v3&utm_medium=api_v3_business_search&utm_source=yfMpLaf7muZFCbIJiMb75g", "review_count": 162, "categories": [{"alias": "burgers", "title": "Burgers"}, {"alias": "diners", "title": "Diners"}, {"alias": "tradamerican", "title": "American (Traditional)"}], "rating": 3.0, "coordinates": {"latitude": 47.6091573, "longitude": -122.3374811}, "transactions": ["delivery", "pickup"], "price": "$", "location": {"address1": "1417 3rd Ave", "address2": "", "address3": "", "city": "Seattle", "zip_code": "98101", "country": "US", "state": "WA", "display_address": ["1417 3rd Ave", "Seattle, WA 98101"]}, "phone": "+12068233030", "display_phone": "(206) 823-3030", "distance": 70.53462160941577}, {"id": "y79z2K_CWymxniuGbdCEMw", "alias": "piroshky-piroshky-seattle-7", "name": "Piroshky Piroshky", "image_url": "https://s3-media1.fl.yelpcdn.com/bphoto/gZ2R1-e8sda2cE966wOOzQ/o.jpg", "is_closed": false, "url": "https://www.yelp.com/biz/piroshky-piroshky-seattle-7?adjust_creative=yfMpLaf7muZFCbIJiMb75g&utm_campaign=yelp_api_v3&utm_medium=api_v3_business_search&utm_source=yfMpLaf7muZFCbIJiMb75g", "review_count": 16, "categories": [{"alias": "bakeries", "title": "Bakeries"}, {"alias": "russian", "title": "Russian"}], "rating": 4.0, "coordinates": {"latitude": 47.61026, "longitude": -122.337606}, "transactions": ["delivery", "pickup"], "location": {"address1": "1501 4th Ave", "address2": "Ste 110", "address3": null, "city": "Seattle", "zip_code": "98101", "country": "US", "state": "WA", "display_address": ["1501 4th Ave", "Ste 110", "Seattle, WA 98101"]}, "phone": "+12064661655", "display_phone": "(206) 466-1655", "distance": 146.0384727141339}, {"id": "2vK5jO0iN8qLZaejIODbkA", "alias": "naansense-seattle", "name": "Naansense", "image_url": "https://s3-media2.fl.yelpcdn.com/bphoto/clz9YBmLRZaZIbq56czsUQ/o.jpg", "is_closed": false, "url": "https://www.yelp.com/biz/naansense-seattle?adjust_creative=yfMpLaf7muZFCbIJiMb75g&utm_campaign=yelp_api_v3&utm_medium=api_v3_business_search&utm_source=yfMpLaf7muZFCbIJiMb75g", "review_count": 69, "categories": [{"alias": "foodtrucks", "title": "Food Trucks"}, {"alias": "indpak", "title": "Indian"}, {"alias": "catering", "title": "Caterers"}], "rating": 4.0, "coordinates": {"latitude": 47.61125, "longitude": -122.33493}, "transactions": [], "price": "$", "location": {"address1": "", "address2": "", "address3": "", "city": "Seattle", "zip_code": "98101", "country": "US", "state": "WA", "display_address": ["Seattle, WA 98101"]}, "phone": "+12066969320", "display_phone": "(206) 696-9320", "distance": 75.00411199524436}, {"id": "ElUusJtZDE4QL0cohv3-_w", "alias": "frolik-kitchen-cocktails-seattle-2", "name": "Frolik Kitchen + Cocktails", "image_url": "https://s3-media3.fl.yelpcdn.com/bphoto/xs0zYZtVjTjfBixc4kYdkQ/o.jpg", "is_closed": false, "url": "https://www.yelp.com/biz/frolik-kitchen-cocktails-seattle-2?adjust_creative=yfMpLaf7muZFCbIJiMb75g&utm_campaign=yelp_api_v3&utm_medium=api_v3_business_search&utm_source=yfMpLaf7muZFCbIJiMb75g", "review_count": 679, "categories": [{"alias": "newamerican", "title": "American (New)"}, {"alias": "breakfast_brunch", "title": "Breakfast & Brunch"}, {"alias": "tradamerican", "title": "American (Traditional)"}], "rating": 3.5, "coordinates": {"latitude": 47.6099694, "longitude": -122.3354995}, "transactions": [], "price": "$$", "location": {"address1": "1415 Fifth Ave", "address2": "", "address3": "", "city": "Seattle", "zip_code": "98101", "country": "US", "state": "WA", "display_address": ["1415 Fifth Ave", "Seattle, WA 98101"]}, "phone": "+12069718015", "display_phone": "(206) 971-8015", "distance": 119.0568864276692}, {"id": "9OlCkeK4TpBbQ76VPDOdYw", "alias": "pike-brewing-company-seattle", "name": "Pike Brewing Company", "image_url": "https://s3-media3.fl.yelpcdn.com/bphoto/PbNufhJM2Tga3AsnFY8cIw/o.jpg", "is_closed": false, "url": "https://www.yelp.com/biz/pike-brewing-company-seattle?adjust_creative=yfMpLaf7muZFCbIJiMb75g&utm_campaign=yelp_api_v3&utm_medium=api_v3_business_search&utm_source=yfMpLaf7muZFCbIJiMb75g", "review_count": 1329, "categories": [{"alias": "tradamerican", "title": "American (Traditional)"}, {"alias": "brewpubs", "title": "Brewpubs"}, {"alias": "seafood", "title": "Seafood"}], "rating": 3.5, "coordinates": {"latitude": 47.6082134, "longitude": -122.3397797}, "transactions": ["delivery", "pickup"], "price": "$$", "location": {"address1": "1415 1st Ave", "address2": "", "address3": "", "city": "Seattle", "zip_code": "98101", "country": "US", "state": "WA", "display_address": ["1415 1st Ave", "Seattle, WA 98101"]}, "phone": "+12066226044", "display_phone": "(206) 622-6044", "distance": 264.7089182414305}, {"id": "5oGqBLSt3m8ijsDFsFBrtw", "alias": "yard-house-seattle", "name": "Yard House", "image_url": "https://s3-media1.fl.yelpcdn.com/bphoto/BqbuQfUBou1dMsiwseJufg/o.jpg", "is_closed": false, "url": "https://www.yelp.com/biz/yard-house-seattle?adjust_creative=yfMpLaf7muZFCbIJiMb75g&utm_campaign=yelp_api_v3&utm_medium=api_v3_business_search&utm_source=yfMpLaf7muZFCbIJiMb75g", "review_count": 676, "categories": [{"alias": "newamerican", "title": "American (New)"}, {"alias": "vegetarian", "title": "Vegetarian"}, {"alias": "bars", "title": "Bars"}], "rating": 3.5, "coordinates": {"latitude": 47.6105657927679, "longitude": -122.337333251419}, "transactions": ["delivery", "pickup"], "price": "$$", "location": {"address1": "1501 4th Ave", "address2": "", "address3": "", "city": "Seattle", "zip_code": "98101", "country": "US", "state": "WA", "display_address": ["1501 4th Ave", "Seattle, WA 98101"]}, "phone": "+12066822087", "display_phone": "(206) 682-2087", "distance": 167.17518035020848}, {"id": "m-v5hYRcf4-y80kQOr_41w", "alias": "pokeworks-seattle-4", "name": "Pokeworks", "image_url": "https://s3-media2.fl.yelpcdn.com/bphoto/LsEIaRShY6I8qeaZ7mLGXw/o.jpg", "is_closed": false, "url": "https://www.yelp.com/biz/pokeworks-seattle-4?adjust_creative=yfMpLaf7muZFCbIJiMb75g&utm_campaign=yelp_api_v3&utm_medium=api_v3_business_search&utm_source=yfMpLaf7muZFCbIJiMb75g", "review_count": 298, "categories": [{"alias": "poke", "title": "Poke"}, {"alias": "salad", "title": "Salad"}, {"alias": "sushi", "title": "Sushi Bars"}], "rating": 4.0, "coordinates": {"latitude": 47.60741, "longitude": -122.33519}, "transactions": ["delivery", "pickup"], "price": "$$", "location": {"address1": "1200 Third Ave", "address2": "#100", "address3": "", "city": "Seattle", "zip_code": "98101", "country": "US", "state": "WA", "display_address": ["1200 Third Ave", "#100", "Seattle, WA 98101"]}, "phone": "+12069625123", "display_phone": "(206) 962-5123", "distance": 217.92113376858978}], "total": 248, "region": {"center": {"longitude": -122.33654022216797, "latitude": 47.60916062240864}}}