{"businesses": [{"id": "pHmG74puAbpCxD8aQRNDKg", "alias": "the-carlile-room-seattle", "name": "The Carlile Room", "image_url": "https://s3-media2.fl.yelpcdn.com/bphoto/jYUKz9vQBXfEeP1Z30jE2Q/o.jpg", "is_closed": false, "url": "https://www.yelp.com/biz/the-carlile-room-seattle?adjust_creative=yfMpLaf7muZFCbIJiMb75g&utm_campaign=yelp_api_v3&utm_medium=api_v3_business_search&utm_source=yfMpLaf7muZFCbIJiMb75g", "review_count": 413, "categories": [{"alias": "newamerican", "title": "American (New)"}, {"alias": "bars", "title": "Bars"}, {"alias": "breakfast_brunch", "title": "Breakfast & Brunch"}], "rating": 4.0, "coordinates": {"latitude": 47.613536, "longitude": -122.33246}, "transactions": [], "price": "$$", "location": {"address1": "820 Pine St", "address2": "", "address3": "", "city": "Seattle", "zip_code": "98101", "country": "US", "state": "WA", "display_address": ["820 Pine St", "Seattle, WA 98101"]}, "phone": "+12069469720", "display_phone": "(206) 946-9720", "distance": 574.6772538846087}, {"id": "yrKe2ApiItl8USMue2YoyA", "alias": "rider-seattle", "name": "Rider", "image_url": "https://s3-media2.fl.yelpcdn.com/bphoto/Xj1kJA_WgjD4dzXVLwHp9Q/o.jpg", "is_closed": false, "url": "https://www.yelp.com/biz/rider-seattle?adjust_creative=yfMpLaf7muZFCbIJiMb75g&utm_campaign=yelp_api_v3&utm_medium=api_v3_business_search&utm_source=yfMpLaf7muZFCbIJiMb75g", "review_count": 205, "categories": [{"alias": "tradamerican", "title": "American (Traditional)"}, {"alias": "seafood", "title": "Seafood"}, {"alias": "raw_food", "title": "Live/Raw Food"}], "rating": 3.5, "coordinates": {"latitude": 47.61229, "longitude": -122.33427}, "transactions": [], "price": "$$", "location": {"address1": "619 Pine St", "address2": null, "address3": "", "city": "Seattle", "zip_code": "98101", "country": "US", "state": "WA", "display_address": ["619 Pine St", "Seattle, WA 98101"]}, "phone": "+12068594242", "display_phone": "(206) 859-4242", "distance": 380.1768550740081}, {"id": "IJJKpDc-0saloLARTETL5w", "alias": "tankard-and-tun-seattle-2", "name": "Tankard & Tun", "image_url": "https://s3-media4.fl.yelpcdn.com/bphoto/amGCqIDljA-YRgMoNMav6g/o.jpg", "is_closed": false, "url": "https://www.yelp.com/biz/tankard-and-tun-seattle-2?adjust_creative=yfMpLaf7muZFCbIJiMb75g&utm_campaign=yelp_api_v3&utm_medium=api_v3_business_search&utm_source=yfMpLaf7muZFCbIJiMb75g", "review_count": 122, "categories": [{"alias": "seafood", "title": "Seafood"}, {"alias": "beer_and_wine", "title": "Beer, Wine & Spirits"}, {"alias": "gastropubs", "title": "Gastropubs"}], "rating": 4.0, "coordinates": {"latitude": 47.60821, "longitude": -122.33971}, "transactions": [], "price": "$$", "location": {"address1": "1415 1st Ave", "address2": "", "address3": null, "city": "Seattle", "zip_code": "98101", "country": "US", "state": "WA", "display_address": ["1415 1st Ave", "Seattle, WA 98101"]}, "phone": "+12068126619", "display_phone": "(206) 812-6619", "distance": 264.7089182414305}, {"id": "ollXFadkOqYxf44_BUFdAg", "alias": "georgian-restaurant-seattle", "name": "Georgian Restaurant", "image_url": "https://s3-media3.fl.yelpcdn.com/bphoto/FOfMxvzu9qEoHUt7-VwtQg/o.jpg", "is_closed": false, "url": "https://www.yelp.com/biz/georgian-restaurant-seattle?adjust_creative=yfMpLaf7muZFCbIJiMb75g&utm_campaign=yelp_api_v3&utm_medium=api_v3_business_search&utm_source=yfMpLaf7muZFCbIJiMb75g", "review_count": 341, "categories": [{"alias": "french", "title": "French"}, {"alias": "newamerican", "title": "American (New)"}, {"alias": "tea", "title": "Tea Rooms"}], "rating": 4.0, "coordinates": {"latitude": 47.60819, "longitude": -122.33414}, "transactions": [], "price": "$$$", "location": {"address1": "411 University Street", "address2": "", "address3": "", "city": "Seattle", "zip_code": "98101", "country": "US", "state": "WA", "display_address": ["411 University Street", "Seattle, WA 98101"]}, "phone": "+12066217889", "display_phone": "(206) 621-7889", "distance": 224.61630565419182}, {"id": "HZTlGFXupOqtPCyYkdeDIw", "alias": "pikes-pit-bar-b-que-seattle", "name": "Pike's Pit Bar-B-Que", "image_url": "https://s3-media4.fl.yelpcdn.com/bphoto/ayCs6w-GUfXj5J8K_uuxWw/o.jpg", "is_closed": false, "url": "https://www.yelp.com/biz/pikes-pit-bar-b-que-seattle?adjust_creative=yfMpLaf7muZFCbIJiMb75g&utm_campaign=yelp_api_v3&utm_medium=api_v3_business_search&utm_source=yfMpLaf7muZFCbIJiMb75g", "review_count": 173, "categories": [{"alias": "bbq", "title": "Barbeque"}], "rating": 4.5, "coordinates": {"latitude": 47.608664, "longitude": -122.340955}, "transactions": ["pickup", "delivery"], "price": "$$", "location": {"address1": "1505 Pike Pl", "address2": null, "address3": null, "city": "Seattle", "zip_code": "98101", "country": "US", "state": "WA", "display_address": ["1505 Pike Pl", "Seattle, WA 98101"]}, "phone": "+12065380779", "display_phone": "(206) 538-0779", "distance": 335.5342548778276}, {"id": "hr0NwXXap5nhsZ1PslEkrg", "alias": "red-bowls-seattle", "name": "Red Bowls", "image_url": "https://s3-media2.fl.yelpcdn.com/bphoto/NOvNjIVvJBPbYUNi3LrPjQ/o.jpg", "is_closed": false, "url": "https://www.yelp.com/biz/red-bowls-seattle?adjust_creative=yfMpLaf7muZFCbIJiMb75g&utm_campaign=yelp_api_v3&utm_medium=api_v3_business_search&utm_source=yfMpLaf7muZFCbIJiMb75g", "review_count": 246, "categories": [{"alias": "japanese", "title": "Japanese"}, {"alias": "korean", "title": "Korean"}], "rating": 4.0, "coordinates": {"latitude": 47.60469, "longitude": -122.33282}, "transactions": [], "price": "$", "location": {"address1": "812 3rd Ave", "address2": null, "address3": "", "city": "Seattle", "zip_code": "98104", "country": "US", "state": "WA", "display_address": ["812 3rd Ave", "Seattle, WA 98104"]}, "phone": "+12063442695", "display_phone": "(206) 344-2695", "distance": 569.6435466054423}, {"id": "PzSebs-SZKljzahRXupdZg", "alias": "sushi-kudasai-seattle", "name": "Sushi Kudasai", "image_url": "https://s3-media1.fl.yelpcdn.com/bphoto/eLi7VHirQDml-aHVt4Yr3g/o.jpg", "is_closed": false, "url": "https://www.yelp.com/biz/sushi-kudasai-seattle?adjust_creative=yfMpLaf7muZFCbIJiMb75g&utm_campaign=yelp_api_v3&utm_medium=api_v3_business_search&utm_source=yfMpLaf7muZFCbIJiMb75g", "review_count": 95, "categories": [{"alias": "sushi", "title": "Sushi Bars"}], "rating": 4.0, "coordinates": {"latitude": 47.6102714538574, "longitude": -122.337501525879}, "transactions": [], "price": "$$", "location": {"address1": "1501 4th Ave", "address2": "Ste 103", "address3": "", "city": "Seattle", "zip_code": "98101", "country": "US", "state": "WA", "display_address": ["1501 4th Ave", "Ste 103", "Seattle, WA 98101"]}, "phone": "+12068394016", "display_phone": "(206) 839-4016", "distance": 145.57727460866138}, {"id": "5UBPVf1jALowHjWrF9Wbsw", "alias": "the-original-deli-seattle-4", "name": "The Original Deli", "image_url": "https://s3-media4.fl.yelpcdn.com/bphoto/CiKW8CLmnPfly9r0p2GGiQ/o.jpg", "is_closed": false, "url": "https://www.yelp.com/biz/the-original-deli-seattle-4?adjust_creative=yfMpLaf7muZFCbIJiMb75g&utm_campaign=yelp_api_v3&utm_medium=api_v3_business_search&utm_source=yfMpLaf7muZFCbIJiMb75g", "review_count": 32, "categories": [{"alias": "delis", "title": "Delis"}, {"alias": "poke", "title": "Poke"}, {"alias": "breakfast_brunch", "title": "Breakfast & Brunch"}], "rating": 4.5, "coordinates": {"latitude": 47.60771, "longitude": -122.3348}, "transactions": [], "price": "$", "location": {"address1": "1215 4th Ave", "address2": "", "address3": "Financial Center", "city": "Seattle", "zip_code": "98161", "country": "US", "state": "WA", "display_address": ["1215 4th Ave", "Financial Center", "Seattle, WA 98161"]}, "phone": "+12069223133", "display_phone": "(206) 922-3133", "distance": 222.49670011037819}, {"id": "K6AaVnMNztGBsIOy_nNnFw", "alias": "olivers-lounge-seattle", "name": "Oliver's Lounge", "image_url": "https://s3-media2.fl.yelpcdn.com/bphoto/hBViLVKR0Tbmn6t_rR_A5A/o.jpg", "is_closed": false, "url": "https://www.yelp.com/biz/olivers-lounge-seattle?adjust_creative=yfMpLaf7muZFCbIJiMb75g&utm_campaign=yelp_api_v3&utm_medium=api_v3_business_search&utm_source=yfMpLaf7muZFCbIJiMb75g", "review_count": 140, "categories": [{"alias": "lounges", "title": "Lounges"}, {"alias": "cocktailbars", "title": "Cocktail Bars"}, {"alias": "tradamerican", "title": "American (Traditional)"}], "rating": 4.0, "coordinates": {"latitude": 47.6121883469027, "longitude": -122.33809335159}, "transactions": [], "price": "$$", "location": {"address1": "405 Olive Way", "address2": "", "address3": "", "city": "Seattle", "zip_code": "98101", "country": "US", "state": "WA", "display_address": ["405 Olive Way", "Seattle, WA 98101"]}, "phone": "+12066238700", "display_phone": "(206) 623-8700", "distance": 356.2307551193002}, {"id": "Fd2P_10fj7Kv8JdIa2oQgQ", "alias": "tulio-seattle", "name": "Tulio", "image_url": "https://s3-media4.fl.yelpcdn.com/bphoto/YkECqjxXMrdvKyTRaa5irw/o.jpg", "is_closed": false, "url": "https://www.yelp.com/biz/tulio-seattle?adjust_creative=yfMpLaf7muZFCbIJiMb75g&utm_campaign=yelp_api_v3&utm_medium=api_v3_business_search&utm_source=yfMpLaf7muZFCbIJiMb75g", "review_count": 614, "categories": [{"alias": "italian", "title": "Italian"}, {"alias": "bars", "title": "Bars"}, {"alias": "breakfast_brunch", "title": "Breakfast & Brunch"}], "rating": 4.0, "coordinates": {"latitude": 47.60762, "longitude": -122.33233}, "transactions": [], "price": "$$$", "location": {"address1": "1100 5th Ave", "address2": "", "address3": "", "city": "Seattle", "zip_code": "98101", "country": "US", "state": "WA", "display_address": ["1100 5th Ave", "Seattle, WA 98101"]}, "phone": "+12066245500", "display_phone": "(206) 624-5500", "distance": 355.8718983974807}, {"id": "qY7iESdzNLo0Hya_FqjdgA", "alias": "potbelly-sandwich-shop-seattle-8", "name": "Potbelly Sandwich Shop", "image_url": "https://s3-media4.fl.yelpcdn.com/bphoto/vUSledP0CUa4ItwXCl-oYA/o.jpg", "is_closed": false, "url": "https://www.yelp.com/biz/potbelly-sandwich-shop-seattle-8?adjust_creative=yfMpLaf7muZFCbIJiMb75g&utm_campaign=yelp_api_v3&utm_medium=api_v3_business_search&utm_source=yfMpLaf7muZFCbIJiMb75g", "review_count": 302, "categories": [{"alias": "sandwiches", "title": "Sandwiches"}, {"alias": "hotdogs", "title": "Fast Food"}, {"alias": "salad", "title": "Salad"}], "rating": 4.0, "coordinates": {"latitude": 47.609929, "longitude": -122.336677}, "transactions": ["pickup", "delivery"], "price": "$", "location": {"address1": "1429 4th Ave", "address2": "", "address3": "", "city": "Seattle", "zip_code": "98101", "country": "US", "state": "WA", "display_address": ["1429 4th Ave", "Seattle, WA 98101"]}, "phone": "+12066230099", "display_phone": "(206) 623-0099", "distance": 86.05266054520835}, {"id": "QKO7PHmQIKhzgjva7SzhxA", "alias": "tap-house-grill-seattle-3", "name": "Tap House Grill", "image_url": "https://s3-media1.fl.yelpcdn.com/bphoto/7y_P-jXb6hBxOtf2h4Ps6g/o.jpg", "is_closed": false, "url": "https://www.yelp.com/biz/tap-house-grill-seattle-3?adjust_creative=yfMpLaf7muZFCbIJiMb75g&utm_campaign=yelp_api_v3&utm_medium=api_v3_business_search&utm_source=yfMpLaf7muZFCbIJiMb75g", "review_count": 1024, "categories": [{"alias": "tradamerican", "title": "American (Traditional)"}, {"alias": "beerbar", "title": "Beer Bar"}], "rating": 3.5, "coordinates": {"latitude": 47.6115768083436, "longitude": -122.33482635159}, "transactions": ["pickup", "delivery"], "price": "$$", "location": {"address1": "1506 6th Ave", "address2": "", "address3": "", "city": "Seattle", "zip_code": "98101", "country": "US", "state": "WA", "display_address": ["1506 6th Ave", "Seattle, WA 98101"]}, "phone": "+12068163314", "display_phone": "(206) 816-3314", "distance": 297.80682404082745}, {"id": "iHG_OTRDZs3WyxVeDA_gKQ", "alias": "dahlia-lounge-seattle", "name": "Dahlia Lounge", "image_url": "https://s3-media3.fl.yelpcdn.com/bphoto/r376ZJ_YOUbDbOBco4f4Sw/o.jpg", "is_closed": false, "url": "https://www.yelp.com/biz/dahlia-lounge-seattle?adjust_creative=yfMpLaf7muZFCbIJiMb75g&utm_campaign=yelp_api_v3&utm_medium=api_v3_business_search&utm_source=yfMpLaf7muZFCbIJiMb75g", "review_count": 1536, "categories": [{"alias": "newamerican", "title": "American (New)"}, {"alias": "seafood", "title": "Seafood"}, {"alias": "breakfast_brunch", "title": "Breakfast & Brunch"}], "rating": 4.0, "coordinates": {"latitude": 47.61304, "longitude": -122.34058}, "transactions": [], "price": "$$$", "location": {"address1": "2001 4th Ave", "address2": "", "address3": "", "city": "Seattle", "zip_code": "98121", "country": "US", "state": "WA", "display_address": ["2001 4th Ave", "Seattle, WA 98121"]}, "phone": "+12066824142", "display_phone": "(206) 682-4142", "distance": 528.4428494615134}, {"id": "Q26XB61A5IDZk3v_nxpGRA", "alias": "poke-alice-seattle", "name": "Poke Alice", "image_url": "https://s3-media3.fl.yelpcdn.com/bphoto/bDj6heT2_pbMb0Ktp81Gmw/o.jpg", "is_closed": false, "url": "https://www.yelp.com/biz/poke-alice-seattle?adjust_creative=yfMpLaf7muZFCbIJiMb75g&utm_campaign=yelp_api_v3&utm_medium=api_v3_business_search&utm_source=yfMpLaf7muZFCbIJiMb75g", "review_count": 153, "categories": [{"alias": "poke", "title": "Poke"}, {"alias": "japanese", "title": "Japanese"}, {"alias": "hawaiian", "title": "Hawaiian"}], "rating": 4.0, "coordinates": {"latitude": 47.60567, "longitude": -122.33511}, "transactions": ["pickup"], "price": "$$", "location": {"address1": "1000 2nd Ave", "address2": "Ste 104", "address3": null, "city": "Seattle", "zip_code": "98104", "country": "US", "state": "WA", "display_address": ["1000 2nd Ave", "Ste 104", "Seattle, WA 98104"]}, "phone": "+14253214348", "display_phone": "(425) 321-4348", "distance": 384.5900288376475}, {"id": "m0tMbBN-ThN-BqYHUd1uJw", "alias": "hamanasu-seattle", "name": "Hamanasu", "image_url": "https://s3-media2.fl.yelpcdn.com/bphoto/OMUUJuZXepVcMB2dqWnuxA/o.jpg", "is_closed": false, "url": "https://www.yelp.com/biz/hamanasu-seattle?adjust_creative=yfMpLaf7muZFCbIJiMb75g&utm_campaign=yelp_api_v3&utm_medium=api_v3_business_search&utm_source=yfMpLaf7muZFCbIJiMb75g", "review_count": 149, "categories": [{"alias": "sushi", "title": "Sushi Bars"}, {"alias": "teppanyaki", "title": "Teppanyaki"}], "rating": 3.5, "coordinates": {"latitude": 47.60842, "longitude": -122.33305}, "transactions": [], "price": "$$", "location": {"address1": "1200 5th Ave", "address2": null, "address3": "", "city": "Seattle", "zip_code": "98101", "country": "US", "state": "WA", "display_address": ["1200 5th Ave", "Seattle, WA 98101"]}, "phone": "+12066824686", "display_phone": "(206) 682-4686", "distance": 274.04878057100814}, {"id": "4lEfPYI8aSJcZw2_3_Ue1A", "alias": "dog-in-the-park-seattle", "name": "Dog In The Park", "image_url": "https://s3-media1.fl.yelpcdn.com/bphoto/Ewdwiu7gW070g15ZaR0KRQ/o.jpg", "is_closed": false, "url": "https://www.yelp.com/biz/dog-in-the-park-seattle?adjust_creative=yfMpLaf7muZFCbIJiMb75g&utm_campaign=yelp_api_v3&utm_medium=api_v3_business_search&utm_source=yfMpLaf7muZFCbIJiMb75g", "review_count": 261, "categories": [{"alias": "hotdog", "title": "Hot Dogs"}, {"alias": "foodstands", "title": "Food Stands"}], "rating": 4.0, "coordinates": {"latitude": 47.6109804179377, "longitude": -122.336851358414}, "transactions": [], "price": "$", "location": {"address1": "1520 4th Ave", "address2": "Ste 100", "address3": "", "city": "Seattle", "zip_code": "98101", "country": "US", "state": "WA", "display_address": ["1520 4th Ave", "Ste 100", "Seattle, WA 98101"]}, "phone": "+12062540943", "display_phone": "(206) 254-0943", "distance": 203.69160571601452}, {"id": "8Puu4LRQRMyQN4xeAkN-Ug", "alias": "the-hart-and-the-hunter-seattle-2", "name": "The Hart and The Hunter", "image_url": "https://s3-media3.fl.yelpcdn.com/bphoto/4ejL-d6d8kkOQq1C_ji2Ng/o.jpg", "is_closed": false, "url": "https://www.yelp.com/biz/the-hart-and-the-hunter-seattle-2?adjust_creative=yfMpLaf7muZFCbIJiMb75g&utm_campaign=yelp_api_v3&utm_medium=api_v3_business_search&utm_source=yfMpLaf7muZFCbIJiMb75g", "review_count": 49, "categories": [{"alias": "southern", "title": "Southern"}, {"alias": "breakfast_brunch", "title": "Breakfast & Brunch"}, {"alias": "cocktailbars", "title": "Cocktail Bars"}], "rating": 3.5, "coordinates": {"latitude": 47.60989, "longitude": -122.34038}, "transactions": [], "location": {"address1": "111 Pine St", "address2": "", "address3": null, "city": "Seattle", "zip_code": "98101", "country": "US", "state": "WA", "display_address": ["111 Pine St", "Seattle, WA 98101"]}, "phone": "+12065960700", "display_phone": "(206) 596-0700", "distance": 292.17351000150046}, {"id": "jKl_18p7QIGk5ffUJ3lw9w", "alias": "market-fresh-rs-seattle-2", "name": "Market Fresh RS", "image_url": "https://s3-media3.fl.yelpcdn.com/bphoto/1rPg2nFQEtDRr2fH24LP1A/o.jpg", "is_closed": false, "url": "https://www.yelp.com/biz/market-fresh-rs-seattle-2?adjust_creative=yfMpLaf7muZFCbIJiMb75g&utm_campaign=yelp_api_v3&utm_medium=api_v3_business_search&utm_source=yfMpLaf7muZFCbIJiMb75g", "review_count": 89, "categories": [{"alias": "buffets", "title": "Buffets"}, {"alias": "salad", "title": "Salad"}, {"alias": "breakfast_brunch", "title": "Breakfast & Brunch"}], "rating": 4.5, "coordinates": {"latitude": 47.6090633903158, "longitude": -122.33365139787}, "transactions": [], "price": "$", "location": {"address1": "1301 5th Ave", "address2": "", "address3": "", "city": "Seattle", "zip_code": "98101", "country": "US", "state": "WA", "display_address": ["1301 5th Ave", "Seattle, WA 98101"]}, "phone": "+12066230480", "display_phone": "(206) 623-0480", "distance": 216.8329166560805}, {"id": "w9TR9_rj_rtQCBu82i4xBA", "alias": "the-triple-door-seattle", "name": "The Triple Door", "image_url": "https://s3-media3.fl.yelpcdn.com/bphoto/PNYGjHKJ2Pk88uwMjA4Qow/o.jpg", "is_closed": false, "url": "https://www.yelp.com/biz/the-triple-door-seattle?adjust_creative=yfMpLaf7muZFCbIJiMb75g&utm_campaign=yelp_api_v3&utm_medium=api_v3_business_search&utm_source=yfMpLaf7muZFCbIJiMb75g", "review_count": 629, "categories": [{"alias": "asianfusion", "title": "Asian Fusion"}, {"alias": "musicvenues", "title": "Music Venues"}, {"alias": "dinnertheater", "title": "Dinner Theater"}], "rating": 3.5, "coordinates": {"latitude": 47.6085441559553, "longitude": -122.33749575913}, "transactions": [], "price": "$$", "location": {"address1": "216 Union St", "address2": "", "address3": "", "city": "Seattle", "zip_code": "98101", "country": "US", "state": "WA", "display_address": ["216 Union St", "Seattle, WA 98101"]}, "phone": "+12068384333", "display_phone": "(206) 838-4333", "distance": 77.18487653161817}, {"id": "CwvRIblqSTc1McIE9hwhFA", "alias": "sushi-kudasai-seattle-2", "name": "Sushi Kudasai", "image_url": "https://s3-media2.fl.yelpcdn.com/bphoto/0woEyQsDmoZ6Vw-N0-boZQ/o.jpg", "is_closed": false, "url": "https://www.yelp.com/biz/sushi-kudasai-seattle-2?adjust_creative=yfMpLaf7muZFCbIJiMb75g&utm_campaign=yelp_api_v3&utm_medium=api_v3_business_search&utm_source=yfMpLaf7muZFCbIJiMb75g", "review_count": 107, "categories": [{"alias": "sushi", "title": "Sushi Bars"}, {"alias": "japanese", "title": "Japanese"}], "rating": 4.0, "coordinates": {"latitude": 47.610282, "longitude": -122.333958}, "transactions": ["pickup", "delivery"], "price": "$$", "location": {"address1": "1420 5th Ave", "address2": "", "address3": "", "city": "Seattle", "zip_code": "98101", "country": "US", "state": "WA", "display_address": ["1420 5th Ave", "Seattle, WA 98101"]}, "phone": "+12066828000", "display_phone": "(206) 682-8000", "distance": 230.26007435747272}, {"id": "R6_L_RgOxocmV2vDi8DkrA", "alias": "the-taproom-at-pike-place-seattle", "name": "The Taproom at Pike Place", "image_url": "https://s3-media3.fl.yelpcdn.com/bphoto/-wPi3mOouaoqnvOXaWM-jA/o.jpg", "is_closed": false, "url": "https://www.yelp.com/biz/the-taproom-at-pike-place-seattle?adjust_creative=yfMpLaf7muZFCbIJiMb75g&utm_campaign=yelp_api_v3&utm_medium=api_v3_business_search&utm_source=yfMpLaf7muZFCbIJiMb75g", "review_count": 39, "categories": [{"alias": "beerbar", "title": "Beer Bar"}, {"alias": "tradamerican", "title": "American (Traditional)"}], "rating": 4.0, "coordinates": {"latitude": 47.60945, "longitude": -122.34086}, "transactions": [], "price": "$$", "location": {"address1": "1525 1st Ave", "address2": "Ste 16", "address3": "", "city": "Seattle", "zip_code": "98101", "country": "US", "state": "WA", "display_address": ["1525 1st Ave", "Ste 16", "Seattle, WA 98101"]}, "phone": "+12068294800", "display_phone": "(206) 829-4800", "distance": 331.78366508583315}, {"id": "ASdrTo7aVTTKNjVvT1mBDg", "alias": "fonte-coffee-seattle-seattle", "name": "Fonte Coffee - Seattle", "image_url": "https://s3-media4.fl.yelpcdn.com/bphoto/w-hN8zym0hmyLtt-wOhCcA/o.jpg", "is_closed": false, "url": "https://www.yelp.com/biz/fonte-coffee-seattle-seattle?adjust_creative=yfMpLaf7muZFCbIJiMb75g&utm_campaign=yelp_api_v3&utm_medium=api_v3_business_search&utm_source=yfMpLaf7muZFCbIJiMb75g", "review_count": 565, "categories": [{"alias": "breakfast_brunch", "title": "Breakfast & Brunch"}, {"alias": "cafes", "title": "Cafes"}, {"alias": "cocktailbars", "title": "Cocktail Bars"}], "rating": 4.0, "coordinates": {"latitude": 47.607379, "longitude": -122.339155}, "transactions": [], "price": "$$", "location": {"address1": "1321 1st Ave", "address2": "", "address3": "", "city": "Seattle", "zip_code": "98101", "country": "US", "state": "WA", "display_address": ["1321 1st Ave", "Seattle, WA 98101"]}, "phone": "+12067776193", "display_phone": "(206) 777-6193", "distance": 274.75344072910536}, {"id": "XzdA05aG8dvMBQQEgJwGiw", "alias": "patagon-seattle-2", "name": "Patagon", "image_url": "https://s3-media1.fl.yelpcdn.com/bphoto/o08QEBYFTTNB4-toL5YjFA/o.jpg", "is_closed": false, "url": "https://www.yelp.com/biz/patagon-seattle-2?adjust_creative=yfMpLaf7muZFCbIJiMb75g&utm_campaign=yelp_api_v3&utm_medium=api_v3_business_search&utm_source=yfMpLaf7muZFCbIJiMb75g", "review_count": 45, "categories": [{"alias": "argentine", "title": "Argentine"}, {"alias": "bars", "title": "Bars"}, {"alias": "newamerican", "title": "American (New)"}], "rating": 4.0, "coordinates": {"latitude": 47.61074, "longitude": -122.33978}, "transactions": [], "location": {"address1": "1610 2nd Ave", "address2": "", "address3": null, "city": "Seattle", "zip_code": "98101", "country": "US", "state": "WA", "display_address": ["1610 2nd Ave", "Seattle, WA 98101"]}, "phone": "+12062567520", "display_phone": "(206) 256-7520", "distance": 329.44971426085544}, {"id": "N5MH5TjH26QW9_SeYGaaQA", "alias": "all-water-seafood-and-oyster-bar-seattle-2", "name": "All Water Seafood & Oyster Bar", "image_url": "https://s3-media1.fl.yelpcdn.com/bphoto/oBwmw909xXO3JtADRaDY3w/o.jpg", "is_closed": false, "url": "https://www.yelp.com/biz/all-water-seafood-and-oyster-bar-seattle-2?adjust_creative=yfMpLaf7muZFCbIJiMb75g&utm_campaign=yelp_api_v3&utm_medium=api_v3_business_search&utm_source=yfMpLaf7muZFCbIJiMb75g", "review_count": 37, "categories": [{"alias": "seafood", "title": "Seafood"}, {"alias": "breakfast_brunch", "title": "Breakfast & Brunch"}, {"alias": "cocktailbars", "title": "Cocktail Bars"}], "rating": 4.0, "coordinates": {"latitude": 47.6050424, "longitude": -122.3361071}, "transactions": [], "price": "$$", "location": {"address1": "1000 1st Ave", "address2": "", "address3": "Loews hotel", "city": "Seattle", "zip_code": "98104", "country": "US", "state": "WA", "display_address": ["1000 1st Ave", "Loews hotel", "Seattle, WA 98104"]}, "phone": "+12063579000", "display_phone": "(206) 357-9000", "distance": 459.0747037961991}, {"id": "AROGz7BvHL9eGYE3-s45cw", "alias": "retro-restaurant-and-lounge-seattle", "name": "Retro Restaurant & Lounge", "image_url": "https://s3-media3.fl.yelpcdn.com/bphoto/ogHfj9wfwOX7TDYvJejmzA/o.jpg", "is_closed": false, "url": "https://www.yelp.com/biz/retro-restaurant-and-lounge-seattle?adjust_creative=yfMpLaf7muZFCbIJiMb75g&utm_campaign=yelp_api_v3&utm_medium=api_v3_business_search&utm_source=yfMpLaf7muZFCbIJiMb75g", "review_count": 81, "categories": [{"alias": "newamerican", "title": "American (New)"}, {"alias": "lounges", "title": "Lounges"}], "rating": 4.0, "coordinates": {"latitude": 47.6115303, "longitude": -122.3399963}, "transactions": [], "price": "$$", "location": {"address1": "216 Stewart St", "address2": null, "address3": "", "city": "Seattle", "zip_code": "98101", "country": "US", "state": "WA", "display_address": ["216 Stewart St", "Seattle, WA 98101"]}, "phone": "+12064417374", "display_phone": "(206) 441-7374", "distance": 386.63993431128307}, {"id": "L7EpZh_kFu8NSFrAeXY3ag", "alias": "off-the-rez-seattle", "name": "Off The Rez", "image_url": "https://s3-media4.fl.yelpcdn.com/bphoto/6ZPkW2UAbWbYPEJPuyQL3Q/o.jpg", "is_closed": false, "url": "https://www.yelp.com/biz/off-the-rez-seattle?adjust_creative=yfMpLaf7muZFCbIJiMb75g&utm_campaign=yelp_api_v3&utm_medium=api_v3_business_search&utm_source=yfMpLaf7muZFCbIJiMb75g", "review_count": 167, "categories": [{"alias": "newamerican", "title": "American (New)"}, {"alias": "foodstands", "title": "Food Stands"}, {"alias": "foodtrucks", "title": "Food Trucks"}], "rating": 4.0, "coordinates": {"latitude": 47.61125, "longitude": -122.33493}, "transactions": [], "price": "$", "location": {"address1": "", "address2": "", "address3": "", "city": "Seattle", "zip_code": "98101", "country": "US", "state": "WA", "display_address": ["Seattle, WA 98101"]}, "phone": "+12064148226", "display_phone": "(206) 414-8226", "distance": 75.00411199524436}, {"id": "uYI_OuUkEUEtjJaBGxJg1g", "alias": "okinawa-teriyaki-seattle", "name": "Okinawa Teriyaki", "image_url": "https://s3-media4.fl.yelpcdn.com/bphoto/jaPEZDwMrCDP6uw8R1Ax5g/o.jpg", "is_closed": false, "url": "https://www.yelp.com/biz/okinawa-teriyaki-seattle?adjust_creative=yfMpLaf7muZFCbIJiMb75g&utm_campaign=yelp_api_v3&utm_medium=api_v3_business_search&utm_source=yfMpLaf7muZFCbIJiMb75g", "review_count": 134, "categories": [{"alias": "chinese", "title": "Chinese"}, {"alias": "japanese", "title": "Japanese"}], "rating": 4.0, "coordinates": {"latitude": 47.60535, "longitude": -122.3381}, "transactions": [], "price": "$", "location": {"address1": "1100 Western Ave", "address2": "", "address3": "", "city": "Seattle", "zip_code": "98101", "country": "US", "state": "WA", "display_address": ["1100 Western Ave", "Seattle, WA 98101"]}, "phone": "+12064472648", "display_phone": "(206) 447-2648", "distance": 456.17896866754234}, {"id": "M4SuI7Ww6lH4q4iWHn4H5A", "alias": "place-pigalle-seattle", "name": "Place Pigalle", "image_url": "https://s3-media2.fl.yelpcdn.com/bphoto/xezK82EZGD92XP_NtI6mww/o.jpg", "is_closed": false, "url": "https://www.yelp.com/biz/place-pigalle-seattle?adjust_creative=yfMpLaf7muZFCbIJiMb75g&utm_campaign=yelp_api_v3&utm_medium=api_v3_business_search&utm_source=yfMpLaf7muZFCbIJiMb75g", "review_count": 464, "categories": [{"alias": "french", "title": "French"}], "rating": 4.0, "coordinates": {"latitude": 47.60831, "longitude": -122.34081}, "transactions": [], "price": "$$$", "location": {"address1": "81 Pike St", "address2": "", "address3": "", "city": "Seattle", "zip_code": "98101", "country": "US", "state": "WA", "display_address": ["81 Pike St", "Seattle, WA 98101"]}, "phone": "+12066241756", "display_phone": "(206) 624-1756", "distance": 313.9073516434328}, {"id": "pO1Xgook1ys50Qu8eTg6Bg", "alias": "pane-pane-sandwiches-seattle", "name": "Pane Pane Sandwiches", "image_url": "https://s3-media4.fl.yelpcdn.com/bphoto/eciL9_o9aI04WHOgKg42xw/o.jpg", "is_closed": false, "url": "https://www.yelp.com/biz/pane-pane-sandwiches-seattle?adjust_creative=yfMpLaf7muZFCbIJiMb75g&utm_campaign=yelp_api_v3&utm_medium=api_v3_business_search&utm_source=yfMpLaf7muZFCbIJiMb75g", "review_count": 122, "categories": [{"alias": "sandwiches", "title": "Sandwiches"}, {"alias": "delis", "title": "Delis"}, {"alias": "asianfusion", "title": "Asian Fusion"}], "rating": 4.0, "coordinates": {"latitude": 47.60894, "longitude": -122.33676}, "transactions": ["pickup"], "price": "$", "location": {"address1": "304 Union St", "address2": "", "address3": "", "city": "Seattle", "zip_code": "98101", "country": "US", "state": "WA", "display_address": ["304 Union St", "Seattle, WA 98101"]}, "phone": "+12066237263", "display_phone": "(206) 623-7263", "distance": 24.25648008367231}, {"id": "ldf4qgL_rhAmxS21zvel9w", "alias": "outlaw-tamales-seattle", "name": "Outlaw Tamales", "image_url": "https://s3-media4.fl.yelpcdn.com/bphoto/YtnKidL-JUxZCeEcotgUHg/o.jpg", "is_closed": false, "url": "https://www.yelp.com/biz/outlaw-tamales-seattle?adjust_creative=yfMpLaf7muZFCbIJiMb75g&utm_campaign=yelp_api_v3&utm_medium=api_v3_business_search&utm_source=yfMpLaf7muZFCbIJiMb75g", "review_count": 38, "categories": [{"alias": "streetvendors", "title": "Street Vendors"}, {"alias": "mexican", "title": "Mexican"}, {"alias": "breakfast_brunch", "title": "Breakfast & Brunch"}], "rating": 5.0, "coordinates": {"latitude": 47.6133499, "longitude": -122.3413}, "transactions": [], "price": "$", "location": {"address1": "2025 4th Ave", "address2": "", "address3": null, "city": "Seattle", "zip_code": "98121", "country": "US", "state": "WA", "display_address": ["2025 4th Ave", "Seattle, WA 98121"]}, "phone": "+12063536074", "display_phone": "(206) 353-6074", "distance": 570.6879282315949}, {"id": "1EFQ8ePAtsgqWc3VyneBMw", "alias": "daily-dozen-doughnut-seattle", "name": "Daily Dozen Doughnut", "image_url": "https://s3-media3.fl.yelpcdn.com/bphoto/h8OKoRFyC14IvZR8pO1exA/o.jpg", "is_closed": false, "url": "https://www.yelp.com/biz/daily-dozen-doughnut-seattle?adjust_creative=yfMpLaf7muZFCbIJiMb75g&utm_campaign=yelp_api_v3&utm_medium=api_v3_business_search&utm_source=yfMpLaf7muZFCbIJiMb75g", "review_count": 955, "categories": [{"alias": "bakeries", "title": "Bakeries"}, {"alias": "donuts", "title": "Donuts"}, {"alias": "foodstands", "title": "Food Stands"}], "rating": 4.5, "coordinates": {"latitude": 47.6086751, "longitude": -122.3402434}, "transactions": [], "price": "$", "location": {"address1": "93 Pike St", "address2": "", "address3": "", "city": "Seattle", "zip_code": "98101", "country": "US", "state": "WA", "display_address": ["93 Pike St", "Seattle, WA 98101"]}, "phone": "+12064677769", "display_phone": "(206) 467-7769", "distance": 276.25491313438295}, {"id": "xD0fXT-0T53sSdTwsG-e1Q", "alias": "mod-pizza-seattle-7", "name": "MOD Pizza", "image_url": "https://s3-media4.fl.yelpcdn.com/bphoto/-TyWNrxvtDu-t0EZBiHgjw/o.jpg", "is_closed": false, "url": "https://www.yelp.com/biz/mod-pizza-seattle-7?adjust_creative=yfMpLaf7muZFCbIJiMb75g&utm_campaign=yelp_api_v3&utm_medium=api_v3_business_search&utm_source=yfMpLaf7muZFCbIJiMb75g", "review_count": 570, "categories": [{"alias": "pizza", "title": "Pizza"}, {"alias": "hotdogs", "title": "Fast Food"}], "rating": 4.0, "coordinates": {"latitude": 47.6093525, "longitude": -122.3326287}, "transactions": [], "price": "$", "location": {"address1": "1302 6th Ave", "address2": "", "address3": "", "city": "Seattle", "zip_code": "98101", "country": "US", "state": "WA", "display_address": ["1302 6th Ave", "Seattle, WA 98101"]}, "phone": "+12063320200", "display_phone": "(206) 332-0200", "distance": 294.0086423070608}, {"id": "Nv5m0Z_5_SFj6pj9Azk03g", "alias": "sansei-seafood-restaurant-and-sushi-bar-seattle-3", "name": "Sansei Seafood Restaurant & Sushi Bar", "image_url": "https://s3-media4.fl.yelpcdn.com/bphoto/-ZqNEfnGc4t8GUodox3dJg/o.jpg", "is_closed": false, "url": "https://www.yelp.com/biz/sansei-seafood-restaurant-and-sushi-bar-seattle-3?adjust_creative=yfMpLaf7muZFCbIJiMb75g&utm_campaign=yelp_api_v3&utm_medium=api_v3_business_search&utm_source=yfMpLaf7muZFCbIJiMb75g", "review_count": 304, "categories": [{"alias": "sushi", "title": "Sushi Bars"}, {"alias": "seafood", "title": "Seafood"}, {"alias": "japanese", "title": "Japanese"}], "rating": 3.5, "coordinates": {"latitude": 47.6131699, "longitude": -122.33215}, "transactions": ["restaurant_reservation"], "price": "$$", "location": {"address1": "815 Pine St", "address2": "", "address3": "", "city": "Seattle", "zip_code": "98101", "country": "US", "state": "WA", "display_address": ["815 Pine St", "Seattle, WA 98101"]}, "phone": "+12064024414", "display_phone": "(206) 402-4414", "distance": 558.4367651352305}, {"id": "h7grF-9qjAbzF6tEb-8tXA", "alias": "palomino-seattle", "name": "Palomino", "image_url": "https://s3-media4.fl.yelpcdn.com/bphoto/mrRUDwMZpXlgkiBQYULuLA/o.jpg", "is_closed": false, "url": "https://www.yelp.com/biz/palomino-seattle?adjust_creative=yfMpLaf7muZFCbIJiMb75g&utm_campaign=yelp_api_v3&utm_medium=api_v3_business_search&utm_source=yfMpLaf7muZFCbIJiMb75g", "review_count": 867, "categories": [{"alias": "newamerican", "title": "American (New)"}, {"alias": "mediterranean", "title": "Mediterranean"}], "rating": 3.5, "coordinates": {"latitude": 47.61051, "longitude": -122.334555}, "transactions": [], "price": "$$", "location": {"address1": "1420 5th Ave", "address2": "Ste 350", "address3": "", "city": "Seattle", "zip_code": "98101", "country": "US", "state": "WA", "display_address": ["1420 5th Ave", "Ste 350", "Seattle, WA 98101"]}, "phone": "+12066231300", "display_phone": "(206) 623-1300", "distance": 211.3316645751108}, {"id": "a9iLwBAri52khGIR_rrUkw", "alias": "dahlia-bakery-seattle", "name": "Dahlia Bakery", "image_url": "https://s3-media2.fl.yelpcdn.com/bphoto/LZvyFBXqEvXDVDOl1fDQLQ/o.jpg", "is_closed": false, "url": "https://www.yelp.com/biz/dahlia-bakery-seattle?adjust_creative=yfMpLaf7muZFCbIJiMb75g&utm_campaign=yelp_api_v3&utm_medium=api_v3_business_search&utm_source=yfMpLaf7muZFCbIJiMb75g", "review_count": 913, "categories": [{"alias": "bakeries", "title": "Bakeries"}, {"alias": "cakeshop", "title": "Patisserie/Cake Shop"}, {"alias": "breakfast_brunch", "title": "Breakfast & Brunch"}], "rating": 4.5, "coordinates": {"latitude": 47.6131855205192, "longitude": -122.340556830168}, "transactions": ["pickup"], "price": "$", "location": {"address1": "2001 4th Ave", "address2": "", "address3": "", "city": "Seattle", "zip_code": "98121", "country": "US", "state": "WA", "display_address": ["2001 4th Ave", "Seattle, WA 98121"]}, "phone": "+12064414540", "display_phone": "(206) 441-4540", "distance": 539.4053786916145}, {"id": "ccTJyQjENbu2AaJLh9gcPA", "alias": "crepe-de-france-seattle", "name": "Crepe De France", "image_url": "https://s3-media2.fl.yelpcdn.com/bphoto/3_cPIKOk7fg3BxfFPJV5iQ/o.jpg", "is_closed": false, "url": "https://www.yelp.com/biz/crepe-de-france-seattle?adjust_creative=yfMpLaf7muZFCbIJiMb75g&utm_campaign=yelp_api_v3&utm_medium=api_v3_business_search&utm_source=yfMpLaf7muZFCbIJiMb75g", "review_count": 327, "categories": [{"alias": "creperies", "title": "Creperies"}], "rating": 4.0, "coordinates": {"latitude": 47.6086751, "longitude": -122.3402434}, "transactions": [], "price": "$$", "location": {"address1": "93 Pike St", "address2": "Ste 204", "address3": "", "city": "Seattle", "zip_code": "98101", "country": "US", "state": "WA", "display_address": ["93 Pike St", "Ste 204", "Seattle, WA 98101"]}, "phone": "+12066242196", "display_phone": "(206) 624-2196", "distance": 276.25491313438295}, {"id": "RHbKgKwLU3aau4qAfHCTpw", "alias": "tossd-seattle", "name": "Toss'd", "image_url": "https://s3-media1.fl.yelpcdn.com/bphoto/xcagkbZVQX_VKGd4DzTQEg/o.jpg", "is_closed": false, "url": "https://www.yelp.com/biz/tossd-seattle?adjust_creative=yfMpLaf7muZFCbIJiMb75g&utm_campaign=yelp_api_v3&utm_medium=api_v3_business_search&utm_source=yfMpLaf7muZFCbIJiMb75g", "review_count": 79, "categories": [{"alias": "newamerican", "title": "American (New)"}, {"alias": "salad", "title": "Salad"}], "rating": 4.0, "coordinates": {"latitude": 47.61054, "longitude": -122.33469}, "transactions": [], "price": "$", "location": {"address1": "1420 5th Ave", "address2": "", "address3": "", "city": "Seattle", "zip_code": "98101", "country": "US", "state": "WA", "display_address": ["1420 5th Ave", "Seattle, WA 98101"]}, "phone": "+12066826700", "display_phone": "(206) 682-6700", "distance": 221.7250614387704}, {"id": "j5iOUyGJWSQ252JoQqiQUw", "alias": "jacks-fish-spot-seattle", "name": "Jack's Fish Spot", "image_url": "https://s3-media1.fl.yelpcdn.com/bphoto/OZ8rwvTxvwef4NuV8uAA2w/o.jpg", "is_closed": false, "url": "https://www.yelp.com/biz/jacks-fish-spot-seattle?adjust_creative=yfMpLaf7muZFCbIJiMb75g&utm_campaign=yelp_api_v3&utm_medium=api_v3_business_search&utm_source=yfMpLaf7muZFCbIJiMb75g", "review_count": 544, "categories": [{"alias": "seafoodmarkets", "title": "Seafood Markets"}, {"alias": "seafood", "title": "Seafood"}, {"alias": "fishnchips", "title": "Fish & Chips"}], "rating": 3.5, "coordinates": {"latitude": 47.6091, "longitude": -122.34085}, "transactions": [], "price": "$", "location": {"address1": "1514 Pike Pl", "address2": "", "address3": "", "city": "Seattle", "zip_code": "98101", "country": "US", "state": "WA", "display_address": ["1514 Pike Pl", "Seattle, WA 98101"]}, "phone": "+12064670514", "display_phone": "(206) 467-0514", "distance": 324.6821384515776}, {"id": "Q6zWeW3PQt7J1K_iS0qzYQ", "alias": "mels-market-seattle", "name": "Mel's Market", "image_url": "https://s3-media2.fl.yelpcdn.com/bphoto/ObPHrmKvy41OS6aTCf2pOQ/o.jpg", "is_closed": false, "url": "https://www.yelp.com/biz/mels-market-seattle?adjust_creative=yfMpLaf7muZFCbIJiMb75g&utm_campaign=yelp_api_v3&utm_medium=api_v3_business_search&utm_source=yfMpLaf7muZFCbIJiMb75g", "review_count": 160, "categories": [{"alias": "sandwiches", "title": "Sandwiches"}, {"alias": "salad", "title": "Salad"}, {"alias": "bagels", "title": "Bagels"}], "rating": 4.0, "coordinates": {"latitude": 47.6058872126119, "longitude": -122.334141146033}, "transactions": [], "price": "$", "location": {"address1": "1001 4th Ave", "address2": "Ste 50", "address3": "", "city": "Seattle", "zip_code": "98154", "country": "US", "state": "WA", "display_address": ["1001 4th Ave", "Ste 50", "Seattle, WA 98154"]}, "phone": "+12066236771", "display_phone": "(206) 623-6771", "distance": 405.99689928182863}, {"id": "JxBXfZ9na3Qbe-HuXg0rbQ", "alias": "joy-bento-seattle", "name": "Joy Bento", "image_url": "https://s3-media4.fl.yelpcdn.com/bphoto/OIvr_ls997i1-GFOXnoJxw/o.jpg", "is_closed": false, "url": "https://www.yelp.com/biz/joy-bento-seattle?adjust_creative=yfMpLaf7muZFCbIJiMb75g&utm_campaign=yelp_api_v3&utm_medium=api_v3_business_search&utm_source=yfMpLaf7muZFCbIJiMb75g", "review_count": 46, "categories": [{"alias": "sushi", "title": "Sushi Bars"}, {"alias": "korean", "title": "Korean"}, {"alias": "japanese", "title": "Japanese"}], "rating": 4.0, "coordinates": {"latitude": 47.6054378676837, "longitude": -122.334748506546}, "transactions": [], "price": "$", "location": {"address1": "214 Madison St", "address2": "", "address3": "", "city": "Seattle", "zip_code": "98104", "country": "US", "state": "WA", "display_address": ["214 Madison St", "Seattle, WA 98104"]}, "phone": "+12062620381", "display_phone": "(206) 262-0381", "distance": 435.1986399999885}, {"id": "k-NOBa8ba2sztF9qQxDmPA", "alias": "mae-phim-thai-seattle-4", "name": "Mae Phim Thai", "image_url": "https://s3-media2.fl.yelpcdn.com/bphoto/iPrKGohp1YVHyaxCvC28ag/o.jpg", "is_closed": false, "url": "https://www.yelp.com/biz/mae-phim-thai-seattle-4?adjust_creative=yfMpLaf7muZFCbIJiMb75g&utm_campaign=yelp_api_v3&utm_medium=api_v3_business_search&utm_source=yfMpLaf7muZFCbIJiMb75g", "review_count": 392, "categories": [{"alias": "thai", "title": "Thai"}], "rating": 3.5, "coordinates": {"latitude": 47.60945, "longitude": -122.33814}, "transactions": ["pickup", "delivery"], "price": "$", "location": {"address1": "213 Pike St", "address2": "", "address3": "", "city": "Seattle", "zip_code": "98101", "country": "US", "state": "WA", "display_address": ["213 Pike St", "Seattle, WA 98101"]}, "phone": "+12066237453", "display_phone": "(206) 623-7453", "distance": 129.55136826361633}, {"id": "hhhaoJ1G3wUu0HKylHPRyQ", "alias": "can-can-seattle", "name": "Can Can", "image_url": "https://s3-media4.fl.yelpcdn.com/bphoto/hdphhk4JiVCRXEFLHVpZyw/o.jpg", "is_closed": false, "url": "https://www.yelp.com/biz/can-can-seattle?adjust_creative=yfMpLaf7muZFCbIJiMb75g&utm_campaign=yelp_api_v3&utm_medium=api_v3_business_search&utm_source=yfMpLaf7muZFCbIJiMb75g", "review_count": 480, "categories": [{"alias": "french", "title": "French"}, {"alias": "cabaret", "title": "Cabaret"}, {"alias": "cocktailbars", "title": "Cocktail Bars"}], "rating": 4.0, "coordinates": {"latitude": 47.60888, "longitude": -122.34036}, "transactions": [], "price": "$$", "location": {"address1": "94 Pike St", "address2": null, "address3": "", "city": "Seattle", "zip_code": "98101", "country": "US", "state": "WA", "display_address": ["94 Pike St", "Seattle, WA 98101"]}, "phone": "+12066520832", "display_phone": "(206) 652-0832", "distance": 290.65358499354414}, {"id": "0wtOwEp-ZepoaQVRETAswg", "alias": "homegrown-seattle-5", "name": "Homegrown", "image_url": "https://s3-media3.fl.yelpcdn.com/bphoto/-XdR5rvs9ncM3EtjwXVSbw/o.jpg", "is_closed": false, "url": "https://www.yelp.com/biz/homegrown-seattle-5?adjust_creative=yfMpLaf7muZFCbIJiMb75g&utm_campaign=yelp_api_v3&utm_medium=api_v3_business_search&utm_source=yfMpLaf7muZFCbIJiMb75g", "review_count": 156, "categories": [{"alias": "sandwiches", "title": "Sandwiches"}, {"alias": "salad", "title": "Salad"}, {"alias": "breakfast_brunch", "title": "Breakfast & Brunch"}], "rating": 4.0, "coordinates": {"latitude": 47.605035, "longitude": -122.334244}, "transactions": [], "price": "$$", "location": {"address1": "999 3rd Ave Plz", "address2": "Ste 2", "address3": "", "city": "Seattle", "zip_code": "98104", "country": "US", "state": "WA", "display_address": ["999 3rd Ave Plz", "Ste 2", "Seattle, WA 98104"]}, "phone": "+18775679240", "display_phone": "(877) 567-9240", "distance": 489.9830466769431}, {"id": "IMQRUEzah7RAvWi5w-jbqQ", "alias": "miss-cafe-seattle-3", "name": "Miss Cafe", "image_url": "https://s3-media1.fl.yelpcdn.com/bphoto/0VfG6pGYz6jw1_P3OHDYhQ/o.jpg", "is_closed": false, "url": "https://www.yelp.com/biz/miss-cafe-seattle-3?adjust_creative=yfMpLaf7muZFCbIJiMb75g&utm_campaign=yelp_api_v3&utm_medium=api_v3_business_search&utm_source=yfMpLaf7muZFCbIJiMb75g", "review_count": 138, "categories": [{"alias": "turkish", "title": "Turkish"}, {"alias": "halal", "title": "Halal"}, {"alias": "pizza", "title": "Pizza"}], "rating": 4.5, "coordinates": {"latitude": 47.60939, "longitude": -122.3408}, "transactions": ["pickup", "delivery"], "price": "$$", "location": {"address1": "1523 1st Ave", "address2": null, "address3": "", "city": "Seattle", "zip_code": "98101", "country": "US", "state": "WA", "display_address": ["1523 1st Ave", "Seattle, WA 98101"]}, "phone": "+12064857044", "display_phone": "(206) 485-7044", "distance": 317.0826930347442}, {"id": "fgOA9qNMzj8Ek_K9_BFSuQ", "alias": "mariscos-mexico-seattle", "name": "Mariscos Mexico", "image_url": "https://s3-media4.fl.yelpcdn.com/bphoto/Lam4pOS0N9L4htrJMl5Rnw/o.jpg", "is_closed": false, "url": "https://www.yelp.com/biz/mariscos-mexico-seattle?adjust_creative=yfMpLaf7muZFCbIJiMb75g&utm_campaign=yelp_api_v3&utm_medium=api_v3_business_search&utm_source=yfMpLaf7muZFCbIJiMb75g", "review_count": 43, "categories": [{"alias": "seafood", "title": "Seafood"}, {"alias": "tacos", "title": "Tacos"}, {"alias": "salad", "title": "Salad"}], "rating": 4.5, "coordinates": {"latitude": 47.6086751, "longitude": -122.3402367}, "transactions": [], "price": "$", "location": {"address1": "97 B Pike St", "address2": "", "address3": "", "city": "Seattle", "zip_code": "98101", "country": "US", "state": "WA", "display_address": ["97 B Pike St", "Seattle, WA 98101"]}, "phone": "", "display_phone": "", "distance": 299.87553554566074}, {"id": "02LOa6FbDCuhLoIt4Epemw", "alias": "delaurenti-food-and-wine-seattle-2", "name": "DeLaurenti Food & Wine", "image_url": "https://s3-media1.fl.yelpcdn.com/bphoto/Aq2uq_lvKMbvVmfEo6hq-g/o.jpg", "is_closed": false, "url": "https://www.yelp.com/biz/delaurenti-food-and-wine-seattle-2?adjust_creative=yfMpLaf7muZFCbIJiMb75g&utm_campaign=yelp_api_v3&utm_medium=api_v3_business_search&utm_source=yfMpLaf7muZFCbIJiMb75g", "review_count": 322, "categories": [{"alias": "beer_and_wine", "title": "Beer, Wine & Spirits"}, {"alias": "delis", "title": "Delis"}, {"alias": "grocery", "title": "Grocery"}], "rating": 4.5, "coordinates": {"latitude": 47.608639, "longitude": -122.340113}, "transactions": ["pickup"], "price": "$$", "location": {"address1": "1435 1st Ave", "address2": "", "address3": "", "city": "Seattle", "zip_code": "98101", "country": "US", "state": "WA", "display_address": ["1435 1st Ave", "Seattle, WA 98101"]}, "phone": "+12066220141", "display_phone": "(206) 622-0141", "distance": 274.04579892108353}, {"id": "pSYEUisXSN4DQ9A1BWGEQw", "alias": "andaluca-seattle-5", "name": "Andaluca", "image_url": "https://s3-media3.fl.yelpcdn.com/bphoto/gedxu-qP0H-f0gx6IPME_Q/o.jpg", "is_closed": false, "url": "https://www.yelp.com/biz/andaluca-seattle-5?adjust_creative=yfMpLaf7muZFCbIJiMb75g&utm_campaign=yelp_api_v3&utm_medium=api_v3_business_search&utm_source=yfMpLaf7muZFCbIJiMb75g", "review_count": 268, "categories": [{"alias": "mediterranean", "title": "Mediterranean"}, {"alias": "breakfast_brunch", "title": "Breakfast & Brunch"}], "rating": 4.0, "coordinates": {"latitude": 47.612257, "longitude": -122.3381346}, "transactions": [], "price": "$$$", "location": {"address1": "407 Olive Way", "address2": "", "address3": "", "city": "Seattle", "zip_code": "98101", "country": "US", "state": "WA", "display_address": ["407 Olive Way", "Seattle, WA 98101"]}, "phone": "+12063826999", "display_phone": "(206) 382-6999", "distance": 364.45622212584396}, {"id": "2LlxBIGO-09HLvzLw9BR2g", "alias": "la-creperie-voila-seattle-4", "name": "La Creperie Voila", "image_url": "https://s3-media4.fl.yelpcdn.com/bphoto/5fBaqaYBi8kAlo8mr7SRKQ/o.jpg", "is_closed": false, "url": "https://www.yelp.com/biz/la-creperie-voila-seattle-4?adjust_creative=yfMpLaf7muZFCbIJiMb75g&utm_campaign=yelp_api_v3&utm_medium=api_v3_business_search&utm_source=yfMpLaf7muZFCbIJiMb75g", "review_count": 321, "categories": [{"alias": "creperies", "title": "Creperies"}, {"alias": "foodstands", "title": "Food Stands"}], "rating": 4.0, "coordinates": {"latitude": 47.611656, "longitude": -122.332648}, "transactions": [], "price": "$", "location": {"address1": "707 Pike St", "address2": "Ste 1", "address3": "", "city": "Seattle", "zip_code": "98101", "country": "US", "state": "WA", "display_address": ["707 Pike St", "Ste 1", "Seattle, WA 98101"]}, "phone": "+12064472737", "display_phone": "(206) 447-2737", "distance": 402.64728498571543}, {"id": "TlKKuqPkF0dC5aYl2J1Piw", "alias": "elephant-and-castle-seattle", "name": "Elephant & Castle", "image_url": "https://s3-media4.fl.yelpcdn.com/bphoto/E0P2hKUUNRk5c1QmBLuL_A/o.jpg", "is_closed": false, "url": "https://www.yelp.com/biz/elephant-and-castle-seattle?adjust_creative=yfMpLaf7muZFCbIJiMb75g&utm_campaign=yelp_api_v3&utm_medium=api_v3_business_search&utm_source=yfMpLaf7muZFCbIJiMb75g", "review_count": 392, "categories": [{"alias": "british", "title": "British"}, {"alias": "pubs", "title": "Pubs"}], "rating": 3.0, "coordinates": {"latitude": 47.60996, "longitude": -122.33566}, "transactions": [], "price": "$$", "location": {"address1": "1415 Fifth Ave", "address2": "", "address3": "", "city": "Seattle", "zip_code": "98101", "country": "US", "state": "WA", "display_address": ["1415 Fifth Ave", "Seattle, WA 98101"]}, "phone": "+12066249977", "display_phone": "(206) 624-9977", "distance": 122.32191115208161}, {"id": "GKMgeksNb9esSOHUDN4tqQ", "alias": "ulis-famous-sausage-seattle", "name": "Uli's Famous Sausage", "image_url": "https://s3-media1.fl.yelpcdn.com/bphoto/3ABcSi5nYgvdkXFkfDwvcQ/o.jpg", "is_closed": false, "url": "https://www.yelp.com/biz/ulis-famous-sausage-seattle?adjust_creative=yfMpLaf7muZFCbIJiMb75g&utm_campaign=yelp_api_v3&utm_medium=api_v3_business_search&utm_source=yfMpLaf7muZFCbIJiMb75g", "review_count": 274, "categories": [{"alias": "meats", "title": "Meat Shops"}, {"alias": "german", "title": "German"}, {"alias": "hotdog", "title": "Hot Dogs"}], "rating": 4.5, "coordinates": {"latitude": 47.608703, "longitude": -122.340993}, "transactions": [], "price": "$$", "location": {"address1": "1511 Pike Pl", "address2": "", "address3": "", "city": "Seattle", "zip_code": "98101", "country": "US", "state": "WA", "display_address": ["1511 Pike Pl", "Seattle, WA 98101"]}, "phone": "+12068391000", "display_phone": "(206) 839-1000", "distance": 337.6636475081291}], "total": 248, "region": {"center": {"longitude": -122.33654022216797, "latitude": 47.60916062240864}}}