{"businesses": [{"id": "KBya88ooX87eS1mFTJYpng", "alias": "ghost-alley-espresso-seattle", "name": "Ghost Alley Espresso", "image_url": "https://s3-media4.fl.yelpcdn.com/bphoto/7pr-iPfkvnZA02CEf-sqaQ/o.jpg", "is_closed": false, "url": "https://www.yelp.com/biz/ghost-alley-espresso-seattle?adjust_creative=yfMpLaf7muZFCbIJiMb75g&utm_campaign=yelp_api_v3&utm_medium=api_v3_business_search&utm_source=yfMpLaf7muZFCbIJiMb75g", "review_count": 320, "categories": [{"alias": "coffee", "title": "Coffee & Tea"}, {"alias": "cafes", "title": "Cafes"}], "rating": 4.5, "coordinates": {"latitude": 47.6085748, "longitude": -122.3406767}, "transactions": [], "price": "$", "location": {"address1": "1499 Post Aly", "address2": "", "address3": null, "city": "Seattle", "zip_code": "98101", "country": "US", "state": "WA", "display_address": ["1499 Post Aly", "Seattle, WA 98101"]}, "phone": "+12063514417", "display_phone": "(206) 351-4417", "distance": 316.86408362748455}, {"id": "ZlXC5mDoWbkLJ3bmfrNloA", "alias": "tandoozy-seattle", "name": "Tandoozy", "image_url": "https://s3-media1.fl.yelpcdn.com/bphoto/E2oV9136mVOn0jBWNT8P7g/o.jpg", "is_closed": false, "url": "https://www.yelp.com/biz/tandoozy-seattle?adjust_creative=yfMpLaf7muZFCbIJiMb75g&utm_campaign=yelp_api_v3&utm_medium=api_v3_business_search&utm_source=yfMpLaf7muZFCbIJiMb75g", "review_count": 66, "categories": [{"alias": "indpak", "title": "Indian"}, {"alias": "foodstands", "title": "Food Stands"}], "rating": 3.5, "coordinates": {"latitude": 47.61125, "longitude": -122.33493}, "transactions": [], "price": "$", "location": {"address1": "", "address2": "", "address3": "", "city": "Seattle", "zip_code": "98101", "country": "US", "state": "WA", "display_address": ["Seattle, WA 98101"]}, "phone": "+12066019247", "display_phone": "(206) 601-9247", "distance": 75.00411199524436}, {"id": "AcZZnoiC1nv8tIrlJQJ28w", "alias": "fresh-table-cafe-seattle-4", "name": "Fresh Table Cafe", "image_url": "https://s3-media4.fl.yelpcdn.com/bphoto/p27DsLPXWpFryt4SWlTAzg/o.jpg", "is_closed": false, "url": "https://www.yelp.com/biz/fresh-table-cafe-seattle-4?adjust_creative=yfMpLaf7muZFCbIJiMb75g&utm_campaign=yelp_api_v3&utm_medium=api_v3_business_search&utm_source=yfMpLaf7muZFCbIJiMb75g", "review_count": 27, "categories": [{"alias": "sandwiches", "title": "Sandwiches"}, {"alias": "breakfast_brunch", "title": "Breakfast & Brunch"}, {"alias": "cafes", "title": "Cafes"}], "rating": 4.0, "coordinates": {"latitude": 47.6102714538574, "longitude": -122.337501525879}, "transactions": ["pickup"], "price": "$", "location": {"address1": "1501 4th Ave", "address2": "", "address3": "", "city": "Seattle", "zip_code": "98101", "country": "US", "state": "WA", "display_address": ["1501 4th Ave", "Seattle, WA 98101"]}, "phone": "+12069031264", "display_phone": "(206) 903-1264", "distance": 145.57727460866138}, {"id": "qzIO18_xvbn_QAecKDDVjw", "alias": "seattle-bagel-bakery-seattle-5", "name": "Seattle Bagel Bakery", "image_url": "https://s3-media4.fl.yelpcdn.com/bphoto/yQ3gT87dfQ7FP4XHxaUNmQ/o.jpg", "is_closed": false, "url": "https://www.yelp.com/biz/seattle-bagel-bakery-seattle-5?adjust_creative=yfMpLaf7muZFCbIJiMb75g&utm_campaign=yelp_api_v3&utm_medium=api_v3_business_search&utm_source=yfMpLaf7muZFCbIJiMb75g", "review_count": 107, "categories": [{"alias": "bakeries", "title": "Bakeries"}, {"alias": "bagels", "title": "Bagels"}, {"alias": "breakfast_brunch", "title": "Breakfast & Brunch"}], "rating": 4.0, "coordinates": {"latitude": 47.6086751, "longitude": -122.3402434}, "transactions": [], "price": "$", "location": {"address1": "93 Pike St", "address2": "Ste 4", "address3": "", "city": "Seattle", "zip_code": "98101", "country": "US", "state": "WA", "display_address": ["93 Pike St", "Ste 4", "Seattle, WA 98101"]}, "phone": "+12066248099", "display_phone": "(206) 624-8099", "distance": 276.25491313438295}, {"id": "fmiQExBU6y5hWjO0D4Dz6g", "alias": "spring-thyme-bakeshop-seattle", "name": "Spring Thyme Bakeshop", "image_url": "https://s3-media1.fl.yelpcdn.com/bphoto/tcB6PN8tKeufYJBHzFHeaw/o.jpg", "is_closed": false, "url": "https://www.yelp.com/biz/spring-thyme-bakeshop-seattle?adjust_creative=yfMpLaf7muZFCbIJiMb75g&utm_campaign=yelp_api_v3&utm_medium=api_v3_business_search&utm_source=yfMpLaf7muZFCbIJiMb75g", "review_count": 44, "categories": [{"alias": "bakeries", "title": "Bakeries"}, {"alias": "coffee", "title": "Coffee & Tea"}, {"alias": "breakfast_brunch", "title": "Breakfast & Brunch"}], "rating": 4.0, "coordinates": {"latitude": 47.6049682, "longitude": -122.3377564}, "transactions": [], "price": "$", "location": {"address1": "77 Spring St", "address2": "", "address3": "", "city": "Seattle", "zip_code": "98104", "country": "US", "state": "WA", "display_address": ["77 Spring St", "Seattle, WA 98104"]}, "phone": "+12066231983", "display_phone": "(206) 623-1983", "distance": 475.0080290282164}, {"id": "qq1UaDz8MJFG6FERgLFfYQ", "alias": "cafe-nordstrom-seattle-5", "name": "Cafe Nordstrom", "image_url": "https://s3-media4.fl.yelpcdn.com/bphoto/NC0ivOQBWYeCDznAwY8Bxg/o.jpg", "is_closed": false, "url": "https://www.yelp.com/biz/cafe-nordstrom-seattle-5?adjust_creative=yfMpLaf7muZFCbIJiMb75g&utm_campaign=yelp_api_v3&utm_medium=api_v3_business_search&utm_source=yfMpLaf7muZFCbIJiMb75g", "review_count": 194, "categories": [{"alias": "newamerican", "title": "American (New)"}, {"alias": "cafes", "title": "Cafes"}], "rating": 4.0, "coordinates": {"latitude": 47.61229, "longitude": -122.33628}, "transactions": [], "price": "$$", "location": {"address1": "500 Pine St", "address2": "", "address3": "", "city": "Seattle", "zip_code": "98101", "country": "US", "state": "WA", "display_address": ["500 Pine St", "Seattle, WA 98101"]}, "phone": "+12066282111", "display_phone": "(206) 628-2111", "distance": 364.6865156049328}, {"id": "PJ3L0Iz8WPpFGB0txveurg", "alias": "davids-and-co-seattle", "name": "Davids & Co", "image_url": "https://s3-media1.fl.yelpcdn.com/bphoto/oILMzflcOo-9x0OlVfSnAw/o.jpg", "is_closed": false, "url": "https://www.yelp.com/biz/davids-and-co-seattle?adjust_creative=yfMpLaf7muZFCbIJiMb75g&utm_campaign=yelp_api_v3&utm_medium=api_v3_business_search&utm_source=yfMpLaf7muZFCbIJiMb75g", "review_count": 24, "categories": [{"alias": "tradamerican", "title": "American (Traditional)"}, {"alias": "bbq", "title": "Barbeque"}], "rating": 3.0, "coordinates": {"latitude": 47.6074902, "longitude": -122.3370127}, "transactions": ["delivery", "pickup"], "price": "$$", "location": {"address1": "200 University St", "address2": "", "address3": "Benaroya Hall", "city": "Seattle", "zip_code": "98101", "country": "US", "state": "WA", "display_address": ["200 University St", "Benaroya Hall", "Seattle, WA 98101"]}, "phone": "+12062154797", "display_phone": "(206) 215-4797", "distance": 123.92948677062526}, {"id": "jQmDJrTse6RF4jnLEvFZpQ", "alias": "new-saigon-vietnamese-restaurant-ii-seattle", "name": "New Saigon Vietnamese Restaurant II", "image_url": "https://s3-media2.fl.yelpcdn.com/bphoto/u1RvsKpNXaTvvh6fzF-yDw/o.jpg", "is_closed": false, "url": "https://www.yelp.com/biz/new-saigon-vietnamese-restaurant-ii-seattle?adjust_creative=yfMpLaf7muZFCbIJiMb75g&utm_campaign=yelp_api_v3&utm_medium=api_v3_business_search&utm_source=yfMpLaf7muZFCbIJiMb75g", "review_count": 256, "categories": [{"alias": "vietnamese", "title": "Vietnamese"}], "rating": 2.5, "coordinates": {"latitude": 47.6116699, "longitude": -122.33531}, "transactions": [], "price": "$", "location": {"address1": "1529 6th Ave", "address2": "", "address3": null, "city": "Seattle", "zip_code": "98101", "country": "US", "state": "WA", "display_address": ["1529 6th Ave", "Seattle, WA 98101"]}, "phone": "+12066230212", "display_phone": "(206) 623-0212", "distance": 319.26256407946477}, {"id": "MT3Ssrciz27FDP5fBNzx5g", "alias": "evergreens-salad-seattle-12", "name": "Evergreens Salad", "image_url": "https://s3-media1.fl.yelpcdn.com/bphoto/O7oJFYrJaWvFjwLo434miA/o.jpg", "is_closed": false, "url": "https://www.yelp.com/biz/evergreens-salad-seattle-12?adjust_creative=yfMpLaf7muZFCbIJiMb75g&utm_campaign=yelp_api_v3&utm_medium=api_v3_business_search&utm_source=yfMpLaf7muZFCbIJiMb75g", "review_count": 5, "categories": [{"alias": "salad", "title": "Salad"}], "rating": 4.0, "coordinates": {"latitude": 47.60967, "longitude": -122.33229}, "transactions": [], "location": {"address1": "600 University St", "address2": "Ste 114", "address3": "", "city": "Seattle", "zip_code": "98101", "country": "US", "state": "WA", "display_address": ["600 University St", "Ste 114", "Seattle, WA 98101"]}, "phone": "+12062680538", "display_phone": "(206) 268-0538", "distance": 331.49799352411304}, {"id": "skyNxfLwt0S1vdAkjYzEIA", "alias": "union-square-seattle", "name": "Union Square", "image_url": "https://s3-media1.fl.yelpcdn.com/bphoto/IlcQ8orvrhLknYDLvOvBRQ/o.jpg", "is_closed": false, "url": "https://www.yelp.com/biz/union-square-seattle?adjust_creative=yfMpLaf7muZFCbIJiMb75g&utm_campaign=yelp_api_v3&utm_medium=api_v3_business_search&utm_source=yfMpLaf7muZFCbIJiMb75g", "review_count": 7, "categories": [{"alias": "restaurants", "title": "Restaurants"}, {"alias": "shopping", "title": "Shopping"}, {"alias": "propertymgmt", "title": "Property Management"}], "rating": 4.5, "coordinates": {"latitude": 47.60967, "longitude": -122.33229}, "transactions": [], "location": {"address1": "600 University St", "address2": "", "address3": "", "city": "Seattle", "zip_code": "98101", "country": "US", "state": "WA", "display_address": ["600 University St", "Seattle, WA 98101"]}, "phone": "+12066135300", "display_phone": "(206) 613-5300", "distance": 331.49799352411304}, {"id": "kMvANi6LKdaOGYcM56vRUw", "alias": "copacabana-cafe-seattle", "name": "Copacabana Cafe", "image_url": "https://s3-media1.fl.yelpcdn.com/bphoto/iiqpzy9dwawVJizpd7sgJw/o.jpg", "is_closed": false, "url": "https://www.yelp.com/biz/copacabana-cafe-seattle?adjust_creative=yfMpLaf7muZFCbIJiMb75g&utm_campaign=yelp_api_v3&utm_medium=api_v3_business_search&utm_source=yfMpLaf7muZFCbIJiMb75g", "review_count": 191, "categories": [{"alias": "spanish", "title": "Spanish"}, {"alias": "latin", "title": "Latin American"}], "rating": 2.5, "coordinates": {"latitude": 47.6088436401923, "longitude": -122.340728269897}, "transactions": [], "price": "$$", "location": {"address1": "1520 1/2 Pike Pl", "address2": "", "address3": "", "city": "Seattle", "zip_code": "98101", "country": "US", "state": "WA", "display_address": ["1520 1/2 Pike Pl", "Seattle, WA 98101"]}, "phone": "+12066226359", "display_phone": "(206) 622-6359", "distance": 315.933556269369}, {"id": "X7grCnjvgq98_tZhnj6qYg", "alias": "world-fresh-asian-eatery-seattle", "name": "World Fresh Asian Eatery", "image_url": "https://s3-media3.fl.yelpcdn.com/bphoto/VaXUPA0_UXFHHiN71e1kaw/o.jpg", "is_closed": false, "url": "https://www.yelp.com/biz/world-fresh-asian-eatery-seattle?adjust_creative=yfMpLaf7muZFCbIJiMb75g&utm_campaign=yelp_api_v3&utm_medium=api_v3_business_search&utm_source=yfMpLaf7muZFCbIJiMb75g", "review_count": 30, "categories": [{"alias": "buffets", "title": "Buffets"}, {"alias": "asianfusion", "title": "Asian Fusion"}], "rating": 3.5, "coordinates": {"latitude": 47.610274, "longitude": -122.332633}, "transactions": ["delivery", "pickup"], "price": "$", "location": {"address1": "601 Union St", "address2": "Ste 125", "address3": "Union Square", "city": "Seattle", "zip_code": "98101", "country": "US", "state": "WA", "display_address": ["601 Union St", "Ste 125", "Union Square", "Seattle, WA 98101"]}, "phone": "+12538808046", "display_phone": "(253) 880-8046", "distance": 317.9939604955573}, {"id": "b9FAOeVB0gUqzwr-rC3DkA", "alias": "torchys-restaurant-bar-and-den-seattle", "name": "Torchy's Restaurant,bar & Den", "image_url": "https://s3-media1.fl.yelpcdn.com/bphoto/chH_ApykZ3j1mF_JarZ87g/o.jpg", "is_closed": false, "url": "https://www.yelp.com/biz/torchys-restaurant-bar-and-den-seattle?adjust_creative=yfMpLaf7muZFCbIJiMb75g&utm_campaign=yelp_api_v3&utm_medium=api_v3_business_search&utm_source=yfMpLaf7muZFCbIJiMb75g", "review_count": 15, "categories": [{"alias": "bars", "title": "Bars"}, {"alias": "tradamerican", "title": "American (Traditional)"}], "rating": 3.5, "coordinates": {"latitude": 47.6096293, "longitude": -122.3334781}, "transactions": [], "price": "$$", "location": {"address1": "1325 Sixth Ave", "address2": "Fl 2", "address3": "Washington Athletic Club", "city": "Seattle", "zip_code": "98101", "country": "US", "state": "WA", "display_address": ["1325 Sixth Ave", "Fl 2", "Washington Athletic Club", "Seattle, WA 98101"]}, "phone": "+12064644626", "display_phone": "(206) 464-4626", "distance": 235.39473022046562}, {"id": "YSjto8cgddRyp_MsGybYqg", "alias": "bernards-on-seneca-seattle", "name": "Bernard's On Seneca", "image_url": "https://s3-media1.fl.yelpcdn.com/bphoto/japAkaW6IXxikNIENaj_Dg/o.jpg", "is_closed": false, "url": "https://www.yelp.com/biz/bernards-on-seneca-seattle?adjust_creative=yfMpLaf7muZFCbIJiMb75g&utm_campaign=yelp_api_v3&utm_medium=api_v3_business_search&utm_source=yfMpLaf7muZFCbIJiMb75g", "review_count": 93, "categories": [{"alias": "german", "title": "German"}, {"alias": "sandwiches", "title": "Sandwiches"}], "rating": 3.0, "coordinates": {"latitude": 47.6072303678713, "longitude": -122.334488820238}, "transactions": [], "price": "$", "location": {"address1": "315 Seneca St", "address2": "", "address3": "Hotel Seattle", "city": "Seattle", "zip_code": "98101", "country": "US", "state": "WA", "display_address": ["315 Seneca St", "Hotel Seattle", "Seattle, WA 98101"]}, "phone": "+12066235110", "display_phone": "(206) 623-5110", "distance": 264.0427264125931}, {"id": "FVMWSDzrLxeXj2iWF-CpEg", "alias": "potbelly-sandwich-shop-seattle-3", "name": "Potbelly Sandwich Shop", "image_url": "https://s3-media3.fl.yelpcdn.com/bphoto/Jocz7L9R-9CDF0CPJjybnA/o.jpg", "is_closed": false, "url": "https://www.yelp.com/biz/potbelly-sandwich-shop-seattle-3?adjust_creative=yfMpLaf7muZFCbIJiMb75g&utm_campaign=yelp_api_v3&utm_medium=api_v3_business_search&utm_source=yfMpLaf7muZFCbIJiMb75g", "review_count": 73, "categories": [{"alias": "hotdogs", "title": "Fast Food"}, {"alias": "sandwiches", "title": "Sandwiches"}, {"alias": "salad", "title": "Salad"}], "rating": 3.5, "coordinates": {"latitude": 47.606544, "longitude": -122.33512}, "transactions": ["delivery", "pickup"], "price": "$", "location": {"address1": "1111 3rd Ave", "address2": "", "address3": "", "city": "Seattle", "zip_code": "98101", "country": "US", "state": "WA", "display_address": ["1111 3rd Ave", "Seattle, WA 98101"]}, "phone": "+12062040079", "display_phone": "(206) 204-0079", "distance": 309.82369652803135}, {"id": "97FmPb3XdowZN86OQkVwlQ", "alias": "market-diner-seattle", "name": "Market Diner", "image_url": "https://s3-media1.fl.yelpcdn.com/bphoto/z2Vf6ZSwVKjKRrVmcpTZMw/o.jpg", "is_closed": false, "url": "https://www.yelp.com/biz/market-diner-seattle?adjust_creative=yfMpLaf7muZFCbIJiMb75g&utm_campaign=yelp_api_v3&utm_medium=api_v3_business_search&utm_source=yfMpLaf7muZFCbIJiMb75g", "review_count": 52, "categories": [{"alias": "tradamerican", "title": "American (Traditional)"}, {"alias": "diners", "title": "Diners"}, {"alias": "breakfast_brunch", "title": "Breakfast & Brunch"}], "rating": 3.5, "coordinates": {"latitude": 47.6091, "longitude": -122.34085}, "transactions": ["pickup"], "price": "$", "location": {"address1": "1514 Pike Pl", "address2": "Ste 8", "address3": "", "city": "Seattle", "zip_code": "98101", "country": "US", "state": "WA", "display_address": ["1514 Pike Pl", "Ste 8", "Seattle, WA 98101"]}, "phone": "+12066241234", "display_phone": "(206) 624-1234", "distance": 324.6821384515776}, {"id": "mLQx2Rlvv4AQOTSkA0UcHw", "alias": "thai-ginger-seattle-seattle", "name": "Thai Ginger - Seattle", "image_url": "https://s3-media2.fl.yelpcdn.com/bphoto/fbtMXWpWKyooGg05RgDAjw/o.jpg", "is_closed": false, "url": "https://www.yelp.com/biz/thai-ginger-seattle-seattle?adjust_creative=yfMpLaf7muZFCbIJiMb75g&utm_campaign=yelp_api_v3&utm_medium=api_v3_business_search&utm_source=yfMpLaf7muZFCbIJiMb75g", "review_count": 367, "categories": [{"alias": "thai", "title": "Thai"}], "rating": 3.0, "coordinates": {"latitude": 47.6126999319823, "longitude": -122.335441035088}, "transactions": ["delivery", "pickup"], "price": "$$", "location": {"address1": "600 Pine St", "address2": "Level 4", "address3": "", "city": "Seattle", "zip_code": "98101", "country": "US", "state": "WA", "display_address": ["600 Pine St", "Level 4", "Seattle, WA 98101"]}, "phone": "+12067499100", "display_phone": "(206) 749-9100", "distance": 402.0862689666554}, {"id": "8oB0bsMDsD8bq8ph8fxnhQ", "alias": "cone-and-steiner-seattle-5", "name": "Cone & Steiner", "image_url": "https://s3-media2.fl.yelpcdn.com/bphoto/Gx8KNqOtMdfKq4WpNPE1bQ/o.jpg", "is_closed": false, "url": "https://www.yelp.com/biz/cone-and-steiner-seattle-5?adjust_creative=yfMpLaf7muZFCbIJiMb75g&utm_campaign=yelp_api_v3&utm_medium=api_v3_business_search&utm_source=yfMpLaf7muZFCbIJiMb75g", "review_count": 15, "categories": [{"alias": "coffee", "title": "Coffee & Tea"}, {"alias": "grocery", "title": "Grocery"}, {"alias": "sandwiches", "title": "Sandwiches"}], "rating": 4.0, "coordinates": {"latitude": 47.6051543558227, "longitude": -122.336431266288}, "transactions": ["delivery", "pickup"], "price": "$", "location": {"address1": "1012 1st Ave", "address2": "", "address3": null, "city": "Seattle", "zip_code": "98104", "country": "US", "state": "WA", "display_address": ["1012 1st Ave", "Seattle, WA 98104"]}, "phone": "+12066240920", "display_phone": "(206) 624-0920", "distance": 445.55090578990786}, {"id": "kkVo-t8dTPGenqIIZscaTA", "alias": "wildfire-taqueria-seattle", "name": "Wildfire Taqueria", "image_url": "https://s3-media1.fl.yelpcdn.com/bphoto/0-BfOqBYGBNdNzk5b87VhA/o.jpg", "is_closed": false, "url": "https://www.yelp.com/biz/wildfire-taqueria-seattle?adjust_creative=yfMpLaf7muZFCbIJiMb75g&utm_campaign=yelp_api_v3&utm_medium=api_v3_business_search&utm_source=yfMpLaf7muZFCbIJiMb75g", "review_count": 44, "categories": [{"alias": "mexican", "title": "Mexican"}], "rating": 3.0, "coordinates": {"latitude": 47.6105662, "longitude": -122.3345466}, "transactions": [], "price": "$", "location": {"address1": "1420 5th Ave", "address2": "Ste 204", "address3": "", "city": "Seattle", "zip_code": "98101", "country": "US", "state": "WA", "display_address": ["1420 5th Ave", "Ste 204", "Seattle, WA 98101"]}, "phone": "+12064674512", "display_phone": "(206) 467-4512", "distance": 216.24804253465445}, {"id": "L2IFijBobbiWOvhISe90PQ", "alias": "regatta-bar-and-grille-seattle", "name": "Regatta Bar & Grille", "image_url": "https://s3-media2.fl.yelpcdn.com/bphoto/IV21W7BZHOGjiSsFLD_fqg/o.jpg", "is_closed": false, "url": "https://www.yelp.com/biz/regatta-bar-and-grille-seattle?adjust_creative=yfMpLaf7muZFCbIJiMb75g&utm_campaign=yelp_api_v3&utm_medium=api_v3_business_search&utm_source=yfMpLaf7muZFCbIJiMb75g", "review_count": 37, "categories": [{"alias": "bars", "title": "Bars"}, {"alias": "tradamerican", "title": "American (Traditional)"}], "rating": 3.0, "coordinates": {"latitude": 47.60809, "longitude": -122.33211}, "transactions": [], "price": "$$", "location": {"address1": "1113 6th Ave", "address2": "", "address3": "", "city": "Seattle", "zip_code": "98101", "country": "US", "state": "WA", "display_address": ["1113 6th Ave", "Seattle, WA 98101"]}, "phone": "+12064641980", "display_phone": "(206) 464-1980", "distance": 351.8050164356653}, {"id": "lNKD9Sxx7BaK6Q3N65wHlA", "alias": "pita-xpress-seattle-4", "name": "Pita Xpress", "image_url": "https://s3-media2.fl.yelpcdn.com/bphoto/ABny0aRkTf9qA4D_liWY1Q/o.jpg", "is_closed": false, "url": "https://www.yelp.com/biz/pita-xpress-seattle-4?adjust_creative=yfMpLaf7muZFCbIJiMb75g&utm_campaign=yelp_api_v3&utm_medium=api_v3_business_search&utm_source=yfMpLaf7muZFCbIJiMb75g", "review_count": 42, "categories": [{"alias": "greek", "title": "Greek"}, {"alias": "mediterranean", "title": "Mediterranean"}], "rating": 4.0, "coordinates": {"latitude": 47.60504, "longitude": -122.33427}, "transactions": ["delivery", "pickup"], "price": "$", "location": {"address1": "999 3rd Ave", "address2": "", "address3": "", "city": "Seattle", "zip_code": "98104", "country": "US", "state": "WA", "display_address": ["999 3rd Ave", "Seattle, WA 98104"]}, "phone": "+12066827190", "display_phone": "(206) 682-7190", "distance": 494.5187146015861}, {"id": "wmXu1fP9W1f79uJX4W8G9w", "alias": "daily-grill-seattle", "name": "Daily Grill", "image_url": "https://s3-media2.fl.yelpcdn.com/bphoto/8mI01KVgolui5FJGW5C2VA/o.jpg", "is_closed": false, "url": "https://www.yelp.com/biz/daily-grill-seattle?adjust_creative=yfMpLaf7muZFCbIJiMb75g&utm_campaign=yelp_api_v3&utm_medium=api_v3_business_search&utm_source=yfMpLaf7muZFCbIJiMb75g", "review_count": 460, "categories": [{"alias": "breakfast_brunch", "title": "Breakfast & Brunch"}, {"alias": "tradamerican", "title": "American (Traditional)"}, {"alias": "bars", "title": "Bars"}], "rating": 3.0, "coordinates": {"latitude": 47.611458, "longitude": -122.33354}, "transactions": ["delivery", "pickup"], "price": "$$", "location": {"address1": "629 Pike St", "address2": "", "address3": "", "city": "Seattle", "zip_code": "98101", "country": "US", "state": "WA", "display_address": ["629 Pike St", "Seattle, WA 98101"]}, "phone": "+12066248400", "display_phone": "(206) 624-8400", "distance": 340.35583857720854}, {"id": "YKTcvutwva5FvA2H2sMHDg", "alias": "red-robin-gourmet-burgers-seattle-7", "name": "Red Robin Gourmet Burgers", "image_url": "https://s3-media2.fl.yelpcdn.com/bphoto/UPqflmT06doO4XbaTA4dUw/o.jpg", "is_closed": false, "url": "https://www.yelp.com/biz/red-robin-gourmet-burgers-seattle-7?adjust_creative=yfMpLaf7muZFCbIJiMb75g&utm_campaign=yelp_api_v3&utm_medium=api_v3_business_search&utm_source=yfMpLaf7muZFCbIJiMb75g", "review_count": 320, "categories": [{"alias": "burgers", "title": "Burgers"}, {"alias": "tradamerican", "title": "American (Traditional)"}], "rating": 2.5, "coordinates": {"latitude": 47.6049738625894, "longitude": -122.340324546244}, "transactions": ["delivery", "pickup"], "price": "$$", "location": {"address1": "1101 Alaskan Way", "address2": "", "address3": "", "city": "Seattle", "zip_code": "98101", "country": "US", "state": "WA", "display_address": ["1101 Alaskan Way", "Seattle, WA 98101"]}, "phone": "+12066231942", "display_phone": "(206) 623-1942", "distance": 545.1809136851795}, {"id": "G-lk0Tu-HkGCCx6cQDoBEg", "alias": "cafe-zum-zum-seattle", "name": "Cafe Zum Zum", "image_url": "https://s3-media1.fl.yelpcdn.com/bphoto/Mrlh6dvSLNrzPQuT0QuQ8A/o.jpg", "is_closed": false, "url": "https://www.yelp.com/biz/cafe-zum-zum-seattle?adjust_creative=yfMpLaf7muZFCbIJiMb75g&utm_campaign=yelp_api_v3&utm_medium=api_v3_business_search&utm_source=yfMpLaf7muZFCbIJiMb75g", "review_count": 174, "categories": [{"alias": "indpak", "title": "Indian"}, {"alias": "pakistani", "title": "Pakistani"}, {"alias": "halal", "title": "Halal"}], "rating": 3.5, "coordinates": {"latitude": 47.6046494203972, "longitude": -122.333402099475}, "transactions": ["pickup"], "price": "$", "location": {"address1": "823 3rd Ave", "address2": "Ste 104", "address3": "", "city": "Seattle", "zip_code": "98104", "country": "US", "state": "WA", "display_address": ["823 3rd Ave", "Ste 104", "Seattle, WA 98104"]}, "phone": "+12066227391", "display_phone": "(206) 622-7391", "distance": 554.051495682597}, {"id": "38eL3Ld7ybnRQC6wyxuEOQ", "alias": "soups-on-seattle-2", "name": "Soup's On!", "image_url": "https://s3-media1.fl.yelpcdn.com/bphoto/lmx8i4c5tEvPvMXeCUI9lQ/o.jpg", "is_closed": false, "url": "https://www.yelp.com/biz/soups-on-seattle-2?adjust_creative=yfMpLaf7muZFCbIJiMb75g&utm_campaign=yelp_api_v3&utm_medium=api_v3_business_search&utm_source=yfMpLaf7muZFCbIJiMb75g", "review_count": 49, "categories": [{"alias": "soup", "title": "Soup"}], "rating": 3.5, "coordinates": {"latitude": 47.610467, "longitude": -122.334604}, "transactions": [], "price": "$", "location": {"address1": "1420 5th Ave", "address2": "", "address3": "", "city": "Seattle", "zip_code": "98101", "country": "US", "state": "WA", "display_address": ["1420 5th Ave", "Seattle, WA 98101"]}, "phone": "+12066259973", "display_phone": "(206) 625-9973", "distance": 205.35161372344643}, {"id": "rbjjAfKbeR9xniV-4lZMNw", "alias": "il-fornaio-seattle", "name": "Il Fornaio", "image_url": "https://s3-media3.fl.yelpcdn.com/bphoto/pRYXGD5HomdiBuauwX4QHQ/o.jpg", "is_closed": false, "url": "https://www.yelp.com/biz/il-fornaio-seattle?adjust_creative=yfMpLaf7muZFCbIJiMb75g&utm_campaign=yelp_api_v3&utm_medium=api_v3_business_search&utm_source=yfMpLaf7muZFCbIJiMb75g", "review_count": 604, "categories": [{"alias": "italian", "title": "Italian"}, {"alias": "seafood", "title": "Seafood"}, {"alias": "pizza", "title": "Pizza"}], "rating": 3.5, "coordinates": {"latitude": 47.612992, "longitude": -122.335801}, "transactions": ["delivery", "pickup"], "price": "$$", "location": {"address1": "600 Pine St", "address2": "", "address3": "", "city": "Seattle", "zip_code": "98101", "country": "US", "state": "WA", "display_address": ["600 Pine St", "Seattle, WA 98101"]}, "phone": "+12062640994", "display_phone": "(206) 264-0994", "distance": 429.61808056305597}, {"id": "fiE0FeHU9lmj4VmZQKKNzA", "alias": "qdoba-mexican-eats-seattle-7", "name": "QDOBA Mexican Eats", "image_url": "https://s3-media3.fl.yelpcdn.com/bphoto/QckMaDqBW2Iq6JxDuFlC2A/o.jpg", "is_closed": false, "url": "https://www.yelp.com/biz/qdoba-mexican-eats-seattle-7?adjust_creative=yfMpLaf7muZFCbIJiMb75g&utm_campaign=yelp_api_v3&utm_medium=api_v3_business_search&utm_source=yfMpLaf7muZFCbIJiMb75g", "review_count": 86, "categories": [{"alias": "mexican", "title": "Mexican"}, {"alias": "hotdogs", "title": "Fast Food"}], "rating": 3.0, "coordinates": {"latitude": 47.60951, "longitude": -122.337927}, "transactions": [], "price": "$", "location": {"address1": "217 Pike St", "address2": "", "address3": "", "city": "Seattle", "zip_code": "98101", "country": "US", "state": "WA", "display_address": ["217 Pike St", "Seattle, WA 98101"]}, "phone": "+12066230325", "display_phone": "(206) 623-0325", "distance": 110.98215576007402}, {"id": "UFbWbNVlWn6lZXAHx8R73g", "alias": "deez-dogz-seattle", "name": "Deez Dogz", "image_url": "https://s3-media2.fl.yelpcdn.com/bphoto/Sz5qSSFx1nLF2gx9nfUoWg/o.jpg", "is_closed": false, "url": "https://www.yelp.com/biz/deez-dogz-seattle?adjust_creative=yfMpLaf7muZFCbIJiMb75g&utm_campaign=yelp_api_v3&utm_medium=api_v3_business_search&utm_source=yfMpLaf7muZFCbIJiMb75g", "review_count": 2, "categories": [{"alias": "hotdog", "title": "Hot Dogs"}, {"alias": "streetvendors", "title": "Street Vendors"}, {"alias": "hotdogs", "title": "Fast Food"}], "rating": 5.0, "coordinates": {"latitude": 47.6106621666729, "longitude": -122.335514947772}, "transactions": [], "location": {"address1": "5TH Ave", "address2": "", "address3": null, "city": "Seattle", "zip_code": "98101", "country": "US", "state": "WA", "display_address": ["5TH Ave", "Seattle, WA 98101"]}, "phone": "", "display_phone": "", "distance": 183.80510941819645}, {"id": "_Vq1fXpIs8-6WQy0GO8tjg", "alias": "genghis-khan-restaurant-seattle", "name": "Genghis Khan Restaurant", "image_url": "https://s3-media3.fl.yelpcdn.com/bphoto/o3y87B0VdjAT81HnVAkUrA/o.jpg", "is_closed": false, "url": "https://www.yelp.com/biz/genghis-khan-restaurant-seattle?adjust_creative=yfMpLaf7muZFCbIJiMb75g&utm_campaign=yelp_api_v3&utm_medium=api_v3_business_search&utm_source=yfMpLaf7muZFCbIJiMb75g", "review_count": 314, "categories": [{"alias": "chinese", "title": "Chinese"}], "rating": 3.0, "coordinates": {"latitude": 47.6084699, "longitude": -122.33938}, "transactions": ["delivery", "pickup"], "price": "$$", "location": {"address1": "1422 1st Ave", "address2": "", "address3": "", "city": "Seattle", "zip_code": "98101", "country": "US", "state": "WA", "display_address": ["1422 1st Ave", "Seattle, WA 98101"]}, "phone": "+12066823606", "display_phone": "(206) 682-3606", "distance": 228.77703353170003}, {"id": "pR_ZdNuTT19aGuBkvXcacw", "alias": "pike-place-bar-and-grill-seattle", "name": "Pike Place Bar & Grill", "image_url": "https://s3-media2.fl.yelpcdn.com/bphoto/TXJl_6vzqBOx2_z02J1NeA/o.jpg", "is_closed": false, "url": "https://www.yelp.com/biz/pike-place-bar-and-grill-seattle?adjust_creative=yfMpLaf7muZFCbIJiMb75g&utm_campaign=yelp_api_v3&utm_medium=api_v3_business_search&utm_source=yfMpLaf7muZFCbIJiMb75g", "review_count": 369, "categories": [{"alias": "seafood", "title": "Seafood"}, {"alias": "bars", "title": "Bars"}, {"alias": "tradamerican", "title": "American (Traditional)"}], "rating": 2.5, "coordinates": {"latitude": 47.60886, "longitude": -122.34043}, "transactions": [], "price": "$$", "location": {"address1": "90 Pike St", "address2": "Ste 22", "address3": "Pike Place Market", "city": "Seattle", "zip_code": "98101", "country": "US", "state": "WA", "display_address": ["90 Pike St", "Ste 22", "Pike Place Market", "Seattle, WA 98101"]}, "phone": "+12066241365", "display_phone": "(206) 624-1365", "distance": 304.9998466440654}, {"id": "2cMooP-Atg17P1D3d6e0CA", "alias": "hard-rock-cafe-seattle-6", "name": "Hard Rock Cafe", "image_url": "https://s3-media1.fl.yelpcdn.com/bphoto/JJTAJGhpVqJzTVlIQ_gxWg/o.jpg", "is_closed": false, "url": "https://www.yelp.com/biz/hard-rock-cafe-seattle-6?adjust_creative=yfMpLaf7muZFCbIJiMb75g&utm_campaign=yelp_api_v3&utm_medium=api_v3_business_search&utm_source=yfMpLaf7muZFCbIJiMb75g", "review_count": 600, "categories": [{"alias": "musicvenues", "title": "Music Venues"}, {"alias": "newamerican", "title": "American (New)"}, {"alias": "venues", "title": "Venues & Event Spaces"}], "rating": 2.5, "coordinates": {"latitude": 47.60931, "longitude": -122.3395}, "transactions": [], "price": "$$", "location": {"address1": "116 Pike Street", "address2": "", "address3": "", "city": "Seattle", "zip_code": "98101", "country": "US", "state": "WA", "display_address": ["116 Pike Street", "Seattle, WA 98101"]}, "phone": "+12062042233", "display_phone": "(206) 204-2233", "distance": 223.4755819282278}, {"id": "6OlODq58Tc4VJFKxPfVptA", "alias": "mcdonalds-seattle-27", "name": "McDonald's", "image_url": "https://s3-media2.fl.yelpcdn.com/bphoto/USAywAttAxi45ni-42aDIg/o.jpg", "is_closed": false, "url": "https://www.yelp.com/biz/mcdonalds-seattle-27?adjust_creative=yfMpLaf7muZFCbIJiMb75g&utm_campaign=yelp_api_v3&utm_medium=api_v3_business_search&utm_source=yfMpLaf7muZFCbIJiMb75g", "review_count": 92, "categories": [{"alias": "hotdogs", "title": "Fast Food"}, {"alias": "burgers", "title": "Burgers"}, {"alias": "coffee", "title": "Coffee & Tea"}], "rating": 2.0, "coordinates": {"latitude": 47.6107118, "longitude": -122.3383607}, "transactions": [], "price": "$", "location": {"address1": "1530 3rd Ave", "address2": "", "address3": "", "city": "Seattle", "zip_code": "98101", "country": "US", "state": "WA", "display_address": ["1530 3rd Ave", "Seattle, WA 98101"]}, "phone": "+12069572295", "display_phone": "(206) 957-2295", "distance": 219.94278176612744}, {"id": "UHhG9Tl2wtuyg3rgmzejTw", "alias": "saffron-spice-seattle", "name": "Saffron Spice", "image_url": "https://s3-media1.fl.yelpcdn.com/bphoto/qDR2LQ8pP1nkh3dItZ4I2Q/o.jpg", "is_closed": false, "url": "https://www.yelp.com/biz/saffron-spice-seattle?adjust_creative=yfMpLaf7muZFCbIJiMb75g&utm_campaign=yelp_api_v3&utm_medium=api_v3_business_search&utm_source=yfMpLaf7muZFCbIJiMb75g", "review_count": 109, "categories": [{"alias": "indpak", "title": "Indian"}, {"alias": "juicebars", "title": "Juice Bars & Smoothies"}, {"alias": "foodtrucks", "title": "Food Trucks"}], "rating": 3.5, "coordinates": {"latitude": 47.6086751, "longitude": -122.3402434}, "transactions": [], "price": "$", "location": {"address1": "93 Pike St", "address2": "ste 3", "address3": "", "city": "Seattle", "zip_code": "98101", "country": "US", "state": "WA", "display_address": ["93 Pike St", "ste 3", "Seattle, WA 98101"]}, "phone": "+12066822593", "display_phone": "(206) 682-2593", "distance": 276.25491313438295}, {"id": "bqnP2DSZreWp9xs7GzYs5A", "alias": "mustard-seed-cafe-seattle", "name": "Mustard Seed Cafe", "image_url": "https://s3-media4.fl.yelpcdn.com/bphoto/BrayiZrE-B4HxZ4ZqN0jQA/o.jpg", "is_closed": false, "url": "https://www.yelp.com/biz/mustard-seed-cafe-seattle?adjust_creative=yfMpLaf7muZFCbIJiMb75g&utm_campaign=yelp_api_v3&utm_medium=api_v3_business_search&utm_source=yfMpLaf7muZFCbIJiMb75g", "review_count": 46, "categories": [{"alias": "burgers", "title": "Burgers"}, {"alias": "cafes", "title": "Cafes"}, {"alias": "korean", "title": "Korean"}], "rating": 3.5, "coordinates": {"latitude": 47.60842, "longitude": -122.33305}, "transactions": ["delivery", "pickup"], "price": "$", "location": {"address1": "1200 5th Ave", "address2": "Ste 2", "address3": "", "city": "Seattle", "zip_code": "98101", "country": "US", "state": "WA", "display_address": ["1200 5th Ave", "Ste 2", "Seattle, WA 98101"]}, "phone": "+12066232259", "display_phone": "(206) 623-2259", "distance": 274.04878057100814}, {"id": "txhnGSO39e1U3N27CJTFyw", "alias": "cherry-street-coffee-house-seattle-11", "name": "Cherry Street Coffee House", "image_url": "https://s3-media1.fl.yelpcdn.com/bphoto/Sz3cKp-TBUhP3BIxO1ukjg/o.jpg", "is_closed": false, "url": "https://www.yelp.com/biz/cherry-street-coffee-house-seattle-11?adjust_creative=yfMpLaf7muZFCbIJiMb75g&utm_campaign=yelp_api_v3&utm_medium=api_v3_business_search&utm_source=yfMpLaf7muZFCbIJiMb75g", "review_count": 62, "categories": [{"alias": "breakfast_brunch", "title": "Breakfast & Brunch"}, {"alias": "coffee", "title": "Coffee & Tea"}, {"alias": "sandwiches", "title": "Sandwiches"}], "rating": 3.5, "coordinates": {"latitude": 47.6128318266411, "longitude": -122.33680813811}, "transactions": [], "price": "$", "location": {"address1": "509 Olive Way", "address2": "", "address3": "", "city": "Seattle", "zip_code": "98101", "country": "US", "state": "WA", "display_address": ["509 Olive Way", "Seattle, WA 98101"]}, "phone": "+12066233005", "display_phone": "(206) 623-3005", "distance": 408.7125827839176}, {"id": "iA6I1H8lVM5Tc1pzViKs7A", "alias": "dragonfish-asian-cafe-seattle", "name": "Dragonfish Asian Cafe", "image_url": "https://s3-media2.fl.yelpcdn.com/bphoto/wVQFDian-sch57_f3JNxNQ/o.jpg", "is_closed": false, "url": "https://www.yelp.com/biz/dragonfish-asian-cafe-seattle?adjust_creative=yfMpLaf7muZFCbIJiMb75g&utm_campaign=yelp_api_v3&utm_medium=api_v3_business_search&utm_source=yfMpLaf7muZFCbIJiMb75g", "review_count": 831, "categories": [{"alias": "sushi", "title": "Sushi Bars"}, {"alias": "japanese", "title": "Japanese"}, {"alias": "asianfusion", "title": "Asian Fusion"}], "rating": 3.0, "coordinates": {"latitude": 47.613129125506, "longitude": -122.33341593431}, "transactions": ["delivery", "pickup"], "price": "$$", "location": {"address1": "722 Pine St", "address2": "", "address3": "", "city": "Seattle", "zip_code": "98101", "country": "US", "state": "WA", "display_address": ["722 Pine St", "Seattle, WA 98101"]}, "phone": "+12064677777", "display_phone": "(206) 467-7777", "distance": 499.57751253241935}, {"id": "2YZQLxFDHQAaR2sSSYi9gw", "alias": "redtrees-restaurant-bar-seattle", "name": "Redtrees Restaurant + Bar", "image_url": "https://s3-media1.fl.yelpcdn.com/bphoto/ekN9Wr0B6LgwCxB7Ug7Tug/o.jpg", "is_closed": false, "url": "https://www.yelp.com/biz/redtrees-restaurant-bar-seattle?adjust_creative=yfMpLaf7muZFCbIJiMb75g&utm_campaign=yelp_api_v3&utm_medium=api_v3_business_search&utm_source=yfMpLaf7muZFCbIJiMb75g", "review_count": 11, "categories": [{"alias": "tradamerican", "title": "American (Traditional)"}, {"alias": "bars", "title": "Bars"}, {"alias": "breakfast_brunch", "title": "Breakfast & Brunch"}], "rating": 3.0, "coordinates": {"latitude": 47.6092202923972, "longitude": -122.333085201681}, "transactions": [], "price": "$$", "location": {"address1": "1301 6th Ave", "address2": "", "address3": "", "city": "Seattle", "zip_code": "98101", "country": "US", "state": "WA", "display_address": ["1301 6th Ave", "Seattle, WA 98101"]}, "phone": "+12066240500", "display_phone": "(206) 624-0500", "distance": 259.09316961173585}, {"id": "6e8IQRNvwIs-hrK5JOZdHA", "alias": "specialtys-caf\u00e9-and-bakery-seattle-31", "name": "Specialty's Caf\u00e9 & Bakery", "image_url": "https://s3-media4.fl.yelpcdn.com/bphoto/dMqVYDEiCLYc9He7n78lvQ/o.jpg", "is_closed": false, "url": "https://www.yelp.com/biz/specialtys-caf%C3%A9-and-bakery-seattle-31?adjust_creative=yfMpLaf7muZFCbIJiMb75g&utm_campaign=yelp_api_v3&utm_medium=api_v3_business_search&utm_source=yfMpLaf7muZFCbIJiMb75g", "review_count": 142, "categories": [{"alias": "sandwiches", "title": "Sandwiches"}, {"alias": "cafes", "title": "Cafes"}, {"alias": "salad", "title": "Salad"}], "rating": 3.5, "coordinates": {"latitude": 47.60593, "longitude": -122.33465}, "transactions": [], "price": "$", "location": {"address1": "1023 3rd Ave", "address2": "", "address3": "", "city": "Seattle", "zip_code": "98104", "country": "US", "state": "WA", "display_address": ["1023 3rd Ave", "Seattle, WA 98104"]}, "phone": "+18775022837", "display_phone": "(877) 502-2837", "distance": 366.8667452146395}, {"id": "A_VG_fYm5XGp3ntPdL_NDQ", "alias": "umai-sushi-and-teriyaki-seattle", "name": "Umai Sushi and Teriyaki", "image_url": "https://s3-media3.fl.yelpcdn.com/bphoto/I0ANJ6fp5dEdQHDz_nylkg/o.jpg", "is_closed": false, "url": "https://www.yelp.com/biz/umai-sushi-and-teriyaki-seattle?adjust_creative=yfMpLaf7muZFCbIJiMb75g&utm_campaign=yelp_api_v3&utm_medium=api_v3_business_search&utm_source=yfMpLaf7muZFCbIJiMb75g", "review_count": 38, "categories": [{"alias": "sushi", "title": "Sushi Bars"}, {"alias": "japanese", "title": "Japanese"}], "rating": 3.5, "coordinates": {"latitude": 47.6086751, "longitude": -122.3402367}, "transactions": [], "price": "$", "location": {"address1": "97 Pike St", "address2": "", "address3": "", "city": "Seattle", "zip_code": "98101", "country": "US", "state": "WA", "display_address": ["97 Pike St", "Seattle, WA 98101"]}, "phone": "+12066242511", "display_phone": "(206) 624-2511", "distance": 299.87553554566074}, {"id": "_20qySJoqoZXTEo93XZw_g", "alias": "poke-lover-seattle-10", "name": "Poke Lover", "image_url": "https://s3-media4.fl.yelpcdn.com/bphoto/8ZbZvSTjoZgmsVbtxuG9fQ/o.jpg", "is_closed": false, "url": "https://www.yelp.com/biz/poke-lover-seattle-10?adjust_creative=yfMpLaf7muZFCbIJiMb75g&utm_campaign=yelp_api_v3&utm_medium=api_v3_business_search&utm_source=yfMpLaf7muZFCbIJiMb75g", "review_count": 35, "categories": [{"alias": "poke", "title": "Poke"}, {"alias": "seafood", "title": "Seafood"}, {"alias": "salad", "title": "Salad"}], "rating": 3.5, "coordinates": {"latitude": 47.60705, "longitude": -122.33865}, "transactions": [], "price": "$$", "location": {"address1": "1307 1st Ave", "address2": "", "address3": null, "city": "Seattle", "zip_code": "98101", "country": "US", "state": "WA", "display_address": ["1307 1st Ave", "Seattle, WA 98101"]}, "phone": "+12064674230", "display_phone": "(206) 467-4230", "distance": 287.14892865393864}, {"id": "hDS_R3cKqMczXN0hS9Mg1g", "alias": "melange-market-seattle", "name": "Melange Market", "image_url": "https://s3-media1.fl.yelpcdn.com/bphoto/IOi4d0CrBsj6EwXHLA6y-w/o.jpg", "is_closed": false, "url": "https://www.yelp.com/biz/melange-market-seattle?adjust_creative=yfMpLaf7muZFCbIJiMb75g&utm_campaign=yelp_api_v3&utm_medium=api_v3_business_search&utm_source=yfMpLaf7muZFCbIJiMb75g", "review_count": 39, "categories": [{"alias": "delis", "title": "Delis"}, {"alias": "salad", "title": "Salad"}, {"alias": "sandwiches", "title": "Sandwiches"}], "rating": 3.5, "coordinates": {"latitude": 47.60718, "longitude": -122.3362}, "transactions": [], "price": "$", "location": {"address1": "1201 3rd Ave", "address2": "Ste 210", "address3": "", "city": "Seattle", "zip_code": "98101", "country": "US", "state": "WA", "display_address": ["1201 3rd Ave", "Ste 210", "Seattle, WA 98101"]}, "phone": "+12062247007", "display_phone": "(206) 224-7007", "distance": 228.27495365486547}, {"id": "eTeTpMqu9pDaPVeqKdbIug", "alias": "third-ave-cafe-seattle", "name": "Third Ave Cafe", "image_url": "https://s3-media4.fl.yelpcdn.com/bphoto/3N5K-TjCbwAl03hKxK7CKw/o.jpg", "is_closed": false, "url": "https://www.yelp.com/biz/third-ave-cafe-seattle?adjust_creative=yfMpLaf7muZFCbIJiMb75g&utm_campaign=yelp_api_v3&utm_medium=api_v3_business_search&utm_source=yfMpLaf7muZFCbIJiMb75g", "review_count": 24, "categories": [{"alias": "coffee", "title": "Coffee & Tea"}, {"alias": "sandwiches", "title": "Sandwiches"}, {"alias": "delis", "title": "Delis"}], "rating": 4.0, "coordinates": {"latitude": 47.61202, "longitude": -122.33993}, "transactions": [], "price": "$", "location": {"address1": "1908 3rd Ave", "address2": "", "address3": "", "city": "Seattle", "zip_code": "98101", "country": "US", "state": "WA", "display_address": ["1908 3rd Ave", "Seattle, WA 98101"]}, "phone": "+12066227778", "display_phone": "(206) 622-7778", "distance": 402.20394709867946}, {"id": "DQvRkEs9BCRTYHJuShOIig", "alias": "chip-and-drews-seattle", "name": "Chip & Drews", "image_url": "https://s3-media2.fl.yelpcdn.com/bphoto/HEXlyW2GsdISiA8VupU-Nw/o.jpg", "is_closed": false, "url": "https://www.yelp.com/biz/chip-and-drews-seattle?adjust_creative=yfMpLaf7muZFCbIJiMb75g&utm_campaign=yelp_api_v3&utm_medium=api_v3_business_search&utm_source=yfMpLaf7muZFCbIJiMb75g", "review_count": 51, "categories": [{"alias": "cafes", "title": "Cafes"}], "rating": 3.0, "coordinates": {"latitude": 47.607711, "longitude": -122.338242}, "transactions": [], "price": "$$", "location": {"address1": "1301 2nd Ave", "address2": "", "address3": "", "city": "Seattle", "zip_code": "98101", "country": "US", "state": "WA", "display_address": ["1301 2nd Ave", "Seattle, WA 98101"]}, "phone": "+12066233869", "display_phone": "(206) 623-3869", "distance": 205.5680751215916}, {"id": "D4qzLt0grcOoGp09ytEfWA", "alias": "taste-cafe-seattle-3", "name": "TASTE Cafe", "image_url": "https://s3-media1.fl.yelpcdn.com/bphoto/UvvSEyNMxgNrq9WKgUVdqw/o.jpg", "is_closed": false, "url": "https://www.yelp.com/biz/taste-cafe-seattle-3?adjust_creative=yfMpLaf7muZFCbIJiMb75g&utm_campaign=yelp_api_v3&utm_medium=api_v3_business_search&utm_source=yfMpLaf7muZFCbIJiMb75g", "review_count": 201, "categories": [{"alias": "newamerican", "title": "American (New)"}], "rating": 3.0, "coordinates": {"latitude": 47.607769, "longitude": -122.338941}, "transactions": [], "price": "$$", "location": {"address1": "1300 1st Ave", "address2": "", "address3": "", "city": "Seattle", "zip_code": "98101", "country": "US", "state": "WA", "display_address": ["1300 1st Ave", "Seattle, WA 98101"]}, "phone": "+12069035291", "display_phone": "(206) 903-5291", "distance": 237.35444258036202}, {"id": "qMq-MQZ4kHbnI_UL4MQqhg", "alias": "sound-soups-seattle", "name": "Sound Soups", "image_url": "https://s3-media2.fl.yelpcdn.com/bphoto/_KqTrkXCjDsPrpCfQc-K5A/o.jpg", "is_closed": false, "url": "https://www.yelp.com/biz/sound-soups-seattle?adjust_creative=yfMpLaf7muZFCbIJiMb75g&utm_campaign=yelp_api_v3&utm_medium=api_v3_business_search&utm_source=yfMpLaf7muZFCbIJiMb75g", "review_count": 85, "categories": [{"alias": "soup", "title": "Soup"}], "rating": 3.5, "coordinates": {"latitude": 47.6049780210904, "longitude": -122.334746650384}, "transactions": [], "price": "$", "location": {"address1": "999 3rd Ave", "address2": "Plaza 7", "address3": null, "city": "Seattle", "zip_code": "98104", "country": "US", "state": "WA", "display_address": ["999 3rd Ave", "Plaza 7", "Seattle, WA 98104"]}, "phone": "+12062841355", "display_phone": "(206) 284-1355", "distance": 484.13086532749327}, {"id": "4IzcmgT3_gAzGsuonV58hQ", "alias": "mangia-me-seattle-2", "name": "Mangia Me", "image_url": "https://s3-media2.fl.yelpcdn.com/bphoto/Vwids_HnS8IcQOUU53AtnQ/o.jpg", "is_closed": false, "url": "https://www.yelp.com/biz/mangia-me-seattle-2?adjust_creative=yfMpLaf7muZFCbIJiMb75g&utm_campaign=yelp_api_v3&utm_medium=api_v3_business_search&utm_source=yfMpLaf7muZFCbIJiMb75g", "review_count": 20, "categories": [{"alias": "foodtrucks", "title": "Food Trucks"}, {"alias": "italian", "title": "Italian"}], "rating": 4.0, "coordinates": {"latitude": 47.613274, "longitude": -122.334427}, "transactions": [], "price": "$$", "location": {"address1": "1600 7th Ave", "address2": "", "address3": "", "city": "Seattle", "zip_code": "98101", "country": "US", "state": "WA", "display_address": ["1600 7th Ave", "Seattle, WA 98101"]}, "phone": "+14256109561", "display_phone": "(425) 610-9561", "distance": 484.04222050463363}, {"id": "KZv8i4gOeAWbnNmjWfLqAg", "alias": "taste-of-asia-seattle-2", "name": "Taste of Asia", "image_url": "https://s3-media1.fl.yelpcdn.com/bphoto/ZmjLh7OfRnnmB3xJ070JBQ/o.jpg", "is_closed": false, "url": "https://www.yelp.com/biz/taste-of-asia-seattle-2?adjust_creative=yfMpLaf7muZFCbIJiMb75g&utm_campaign=yelp_api_v3&utm_medium=api_v3_business_search&utm_source=yfMpLaf7muZFCbIJiMb75g", "review_count": 17, "categories": [{"alias": "chinese", "title": "Chinese"}, {"alias": "japanese", "title": "Japanese"}, {"alias": "korean", "title": "Korean"}], "rating": 3.5, "coordinates": {"latitude": 47.6102714538574, "longitude": -122.337501525879}, "transactions": [], "price": "$", "location": {"address1": "1501 4th Ave", "address2": "", "address3": "", "city": "Seattle", "zip_code": "98101", "country": "US", "state": "WA", "display_address": ["1501 4th Ave", "Seattle, WA 98101"]}, "phone": "+12066821888", "display_phone": "(206) 682-1888", "distance": 145.57727460866138}, {"id": "RziyshmEzGOVpxtMHmNxqA", "alias": "jamaican-island-cuisine-seattle", "name": "Jamaican Island Cuisine", "image_url": "https://s3-media4.fl.yelpcdn.com/bphoto/-_FhQo-XIQ4muGmcTJqrDQ/o.jpg", "is_closed": false, "url": "https://www.yelp.com/biz/jamaican-island-cuisine-seattle?adjust_creative=yfMpLaf7muZFCbIJiMb75g&utm_campaign=yelp_api_v3&utm_medium=api_v3_business_search&utm_source=yfMpLaf7muZFCbIJiMb75g", "review_count": 1, "categories": [{"alias": "caribbean", "title": "Caribbean"}, {"alias": "foodtrucks", "title": "Food Trucks"}], "rating": 5.0, "coordinates": {"latitude": 47.60358, "longitude": -122.32945}, "transactions": [], "location": {"address1": "", "address2": "", "address3": null, "city": "Seattle", "zip_code": "", "country": "US", "state": "WA", "display_address": ["Seattle, WA"]}, "phone": "+15416120575", "display_phone": "(541) 612-0575", "distance": 468.9876792760113}, {"id": "cySMOcsOIUVKN_f4vt-ciA", "alias": "sound-view-cafe-seattle", "name": "Sound View Cafe", "image_url": "https://s3-media1.fl.yelpcdn.com/bphoto/nGrYgOiZGFgfX40AZhTgDQ/o.jpg", "is_closed": false, "url": "https://www.yelp.com/biz/sound-view-cafe-seattle?adjust_creative=yfMpLaf7muZFCbIJiMb75g&utm_campaign=yelp_api_v3&utm_medium=api_v3_business_search&utm_source=yfMpLaf7muZFCbIJiMb75g", "review_count": 313, "categories": [{"alias": "breakfast_brunch", "title": "Breakfast & Brunch"}, {"alias": "seafood", "title": "Seafood"}, {"alias": "tradamerican", "title": "American (Traditional)"}], "rating": 3.0, "coordinates": {"latitude": 47.6087112426758, "longitude": -122.341041564941}, "transactions": [], "price": "$$", "location": {"address1": "1501 Pike Pl", "address2": "Ste 501", "address3": "", "city": "Seattle", "zip_code": "98101", "country": "US", "state": "WA", "display_address": ["1501 Pike Pl", "Ste 501", "Seattle, WA 98101"]}, "phone": "+12066235700", "display_phone": "(206) 623-5700", "distance": 320.14721200307724}, {"id": "Iy3r3jodlDZWW4AG3l0V4g", "alias": "pike-place-chinese-cuisine-seattle", "name": "Pike Place Chinese Cuisine", "image_url": "https://s3-media3.fl.yelpcdn.com/bphoto/BQyc7pdPl_4UjQwbgli34w/o.jpg", "is_closed": false, "url": "https://www.yelp.com/biz/pike-place-chinese-cuisine-seattle?adjust_creative=yfMpLaf7muZFCbIJiMb75g&utm_campaign=yelp_api_v3&utm_medium=api_v3_business_search&utm_source=yfMpLaf7muZFCbIJiMb75g", "review_count": 234, "categories": [{"alias": "chinese", "title": "Chinese"}], "rating": 3.0, "coordinates": {"latitude": 47.60883, "longitude": -122.34111}, "transactions": ["delivery", "pickup"], "price": "$$", "location": {"address1": "1533 Pike Pl", "address2": "", "address3": "", "city": "Seattle", "zip_code": "98101", "country": "US", "state": "WA", "display_address": ["1533 Pike Pl", "Seattle, WA 98101"]}, "phone": "+12062230292", "display_phone": "(206) 223-0292", "distance": 338.1413985175045}], "total": 248, "region": {"center": {"longitude": -122.33654022216797, "latitude": 47.60916062240864}}}