{"businesses": [{"id": "Q_xYu-RqixW4O-TlEbc1fA", "alias": "assaggio-ristorante-seattle", "name": "Assaggio Ristorante", "image_url": "https://s3-media3.fl.yelpcdn.com/bphoto/VMZEk5_CfbGJTEmQ7DYZvg/o.jpg", "is_closed": false, "url": "https://www.yelp.com/biz/assaggio-ristorante-seattle?adjust_creative=yfMpLaf7muZFCbIJiMb75g&utm_campaign=yelp_api_v3&utm_medium=api_v3_business_search&utm_source=yfMpLaf7muZFCbIJiMb75g", "review_count": 534, "categories": [{"alias": "italian", "title": "Italian"}, {"alias": "pizza", "title": "Pizza"}], "rating": 4.0, "coordinates": {"latitude": 47.6132319867611, "longitude": -122.340262457728}, "transactions": [], "price": "$$", "location": {"address1": "2010 4th Ave", "address2": "", "address3": "", "city": "Seattle", "zip_code": "98121", "country": "US", "state": "WA", "display_address": ["2010 4th Ave", "Seattle, WA 98121"]}, "phone": "+12064411399", "display_phone": "(206) 441-1399", "distance": 549.4289190492698}, {"id": "kU4i3s3r0r47XYHYryyQhw", "alias": "fog-room-seattle", "name": "Fog Room", "image_url": "https://s3-media4.fl.yelpcdn.com/bphoto/-QvyQxHT2dGdCDfc1HzgLA/o.jpg", "is_closed": false, "url": "https://www.yelp.com/biz/fog-room-seattle?adjust_creative=yfMpLaf7muZFCbIJiMb75g&utm_campaign=yelp_api_v3&utm_medium=api_v3_business_search&utm_source=yfMpLaf7muZFCbIJiMb75g", "review_count": 50, "categories": [{"alias": "cocktailbars", "title": "Cocktail Bars"}, {"alias": "lounges", "title": "Lounges"}, {"alias": "tapasmallplates", "title": "Tapas/Small Plates"}], "rating": 4.0, "coordinates": {"latitude": 47.610979, "longitude": -122.339962}, "transactions": [], "location": {"address1": "1610 2nd Ave", "address2": "", "address3": null, "city": "Seattle", "zip_code": "98101", "country": "US", "state": "WA", "display_address": ["1610 2nd Ave", "Seattle, WA 98101"]}, "phone": "+12062567525", "display_phone": "(206) 256-7525", "distance": 326.62024828957783}, {"id": "o7Iszf9beAlGMegE9IgHCA", "alias": "oriental-mart-seattle-5", "name": "Oriental Mart", "image_url": "https://s3-media4.fl.yelpcdn.com/bphoto/K4KtBP4acc5olFDlw8Qhiw/o.jpg", "is_closed": false, "url": "https://www.yelp.com/biz/oriental-mart-seattle-5?adjust_creative=yfMpLaf7muZFCbIJiMb75g&utm_campaign=yelp_api_v3&utm_medium=api_v3_business_search&utm_source=yfMpLaf7muZFCbIJiMb75g", "review_count": 237, "categories": [{"alias": "grocery", "title": "Grocery"}, {"alias": "filipino", "title": "Filipino"}, {"alias": "importedfood", "title": "Imported Food"}], "rating": 4.5, "coordinates": {"latitude": 47.60892, "longitude": -122.34066}, "transactions": [], "price": "$", "location": {"address1": "1506 Pike Pl", "address2": null, "address3": "", "city": "Seattle", "zip_code": "98101", "country": "US", "state": "WA", "display_address": ["1506 Pike Pl", "Seattle, WA 98101"]}, "phone": "+12066228488", "display_phone": "(206) 622-8488", "distance": 312.32318051110445}, {"id": "yUWE1S7cYMFVp2PqCX5p8g", "alias": "alibi-room-seattle", "name": "Alibi Room", "image_url": "https://s3-media4.fl.yelpcdn.com/bphoto/NIzkbOuhd8geFu2U4LVWbg/o.jpg", "is_closed": false, "url": "https://www.yelp.com/biz/alibi-room-seattle?adjust_creative=yfMpLaf7muZFCbIJiMb75g&utm_campaign=yelp_api_v3&utm_medium=api_v3_business_search&utm_source=yfMpLaf7muZFCbIJiMb75g", "review_count": 650, "categories": [{"alias": "newamerican", "title": "American (New)"}, {"alias": "lounges", "title": "Lounges"}, {"alias": "pizza", "title": "Pizza"}], "rating": 4.0, "coordinates": {"latitude": 47.60832, "longitude": -122.34081}, "transactions": [], "price": "$$", "location": {"address1": "85 Pike St", "address2": "Ste 410", "address3": "", "city": "Seattle", "zip_code": "98101", "country": "US", "state": "WA", "display_address": ["85 Pike St", "Ste 410", "Seattle, WA 98101"]}, "phone": "+12066233180", "display_phone": "(206) 623-3180", "distance": 312.3155414708359}, {"id": "gZeDLREZGT9vKdQW4M1PaA", "alias": "delicatus-seattle-2", "name": "Delicatus", "image_url": "https://s3-media3.fl.yelpcdn.com/bphoto/htHGkhiFfubG--lE385vLw/o.jpg", "is_closed": false, "url": "https://www.yelp.com/biz/delicatus-seattle-2?adjust_creative=yfMpLaf7muZFCbIJiMb75g&utm_campaign=yelp_api_v3&utm_medium=api_v3_business_search&utm_source=yfMpLaf7muZFCbIJiMb75g", "review_count": 26, "categories": [{"alias": "sandwiches", "title": "Sandwiches"}, {"alias": "bars", "title": "Bars"}], "rating": 4.0, "coordinates": {"latitude": 47.6077688303459, "longitude": -122.33713169306}, "transactions": [], "price": "$$", "location": {"address1": "200 University St", "address2": "Ste 101B", "address3": null, "city": "Seattle", "zip_code": "98101", "country": "US", "state": "WA", "display_address": ["200 University St", "Ste 101B", "Seattle, WA 98101"]}, "phone": "+12064671803", "display_phone": "(206) 467-1803", "distance": 160.98685283233854}, {"id": "LSJS8rNhBKiQTUdpHk7_8g", "alias": "wild-fish-poke-seattle", "name": "Wild Fish Poke", "image_url": "https://s3-media1.fl.yelpcdn.com/bphoto/r1xXS_6wPDH7hC_RT6Ja3w/o.jpg", "is_closed": false, "url": "https://www.yelp.com/biz/wild-fish-poke-seattle?adjust_creative=yfMpLaf7muZFCbIJiMb75g&utm_campaign=yelp_api_v3&utm_medium=api_v3_business_search&utm_source=yfMpLaf7muZFCbIJiMb75g", "review_count": 42, "categories": [{"alias": "seafood", "title": "Seafood"}, {"alias": "poke", "title": "Poke"}], "rating": 4.5, "coordinates": {"latitude": 47.60888, "longitude": -122.34036}, "transactions": ["pickup", "delivery"], "price": "$$", "location": {"address1": "94 Pike St", "address2": "", "address3": "", "city": "Seattle", "zip_code": "98101", "country": "US", "state": "WA", "display_address": ["94 Pike St", "Seattle, WA 98101"]}, "phone": "+12066198618", "display_phone": "(206) 619-8618", "distance": 290.65358499354414}, {"id": "SQKRGzDa7qd8qHb13Z2-Hg", "alias": "delinomore-seattle", "name": "DeliNoMore", "image_url": "https://s3-media4.fl.yelpcdn.com/bphoto/H1p6njRYuEULDluuwEbiNw/o.jpg", "is_closed": false, "url": "https://www.yelp.com/biz/delinomore-seattle?adjust_creative=yfMpLaf7muZFCbIJiMb75g&utm_campaign=yelp_api_v3&utm_medium=api_v3_business_search&utm_source=yfMpLaf7muZFCbIJiMb75g", "review_count": 93, "categories": [{"alias": "asianfusion", "title": "Asian Fusion"}, {"alias": "hotdogs", "title": "Fast Food"}, {"alias": "delis", "title": "Delis"}], "rating": 4.0, "coordinates": {"latitude": 47.6078987121582, "longitude": -122.332588195801}, "transactions": ["delivery", "pickup"], "price": "$", "location": {"address1": "1118 5th Ave", "address2": "", "address3": "", "city": "Seattle", "zip_code": "98101", "country": "US", "state": "WA", "display_address": ["1118 5th Ave", "Seattle, WA 98101"]}, "phone": "+12064675311", "display_phone": "(206) 467-5311", "distance": 322.27823839287106}, {"id": "Of2DnD5R93doq-5T5Qrkmw", "alias": "los-agaves-seattle-4", "name": "Los Agaves", "image_url": "https://s3-media1.fl.yelpcdn.com/bphoto/raLDbXYtvbWoE9NyeKEECQ/o.jpg", "is_closed": false, "url": "https://www.yelp.com/biz/los-agaves-seattle-4?adjust_creative=yfMpLaf7muZFCbIJiMb75g&utm_campaign=yelp_api_v3&utm_medium=api_v3_business_search&utm_source=yfMpLaf7muZFCbIJiMb75g", "review_count": 284, "categories": [{"alias": "mexican", "title": "Mexican"}], "rating": 4.0, "coordinates": {"latitude": 47.609118, "longitude": -122.340829}, "transactions": ["delivery", "pickup"], "price": "$", "location": {"address1": "1514 Pike Place Market Ave", "address2": "Ste 7", "address3": "", "city": "Seattle", "zip_code": "98101", "country": "US", "state": "WA", "display_address": ["1514 Pike Place Market Ave", "Ste 7", "Seattle, WA 98101"]}, "phone": "+12065040202", "display_phone": "(206) 504-0202", "distance": 321.5466876478903}, {"id": "mSNJCL3v2tzyo8D77i0buA", "alias": "evergreens-salad-seattle-4", "name": "Evergreens Salad", "image_url": "https://s3-media1.fl.yelpcdn.com/bphoto/XtlBCCw2ODiSckDppgAt9Q/o.jpg", "is_closed": false, "url": "https://www.yelp.com/biz/evergreens-salad-seattle-4?adjust_creative=yfMpLaf7muZFCbIJiMb75g&utm_campaign=yelp_api_v3&utm_medium=api_v3_business_search&utm_source=yfMpLaf7muZFCbIJiMb75g", "review_count": 149, "categories": [{"alias": "salad", "title": "Salad"}, {"alias": "wraps", "title": "Wraps"}], "rating": 4.0, "coordinates": {"latitude": 47.61285, "longitude": -122.33634}, "transactions": [], "price": "$$", "location": {"address1": "1631 6th Ave", "address2": null, "address3": "", "city": "Seattle", "zip_code": "98101", "country": "US", "state": "WA", "display_address": ["1631 6th Ave", "Seattle, WA 98101"]}, "phone": "+12064366936", "display_phone": "(206) 436-6936", "distance": 402.5164513807441}, {"id": "ZNbLqO1tJQ3_XGSDO-Dtlg", "alias": "napkin-friends-seattle", "name": "Napkin Friends", "image_url": "https://s3-media1.fl.yelpcdn.com/bphoto/WDuP5HfD6EwYST3ZAEHGkA/o.jpg", "is_closed": false, "url": "https://www.yelp.com/biz/napkin-friends-seattle?adjust_creative=yfMpLaf7muZFCbIJiMb75g&utm_campaign=yelp_api_v3&utm_medium=api_v3_business_search&utm_source=yfMpLaf7muZFCbIJiMb75g", "review_count": 78, "categories": [{"alias": "foodtrucks", "title": "Food Trucks"}, {"alias": "sandwiches", "title": "Sandwiches"}, {"alias": "catering", "title": "Caterers"}], "rating": 4.0, "coordinates": {"latitude": 47.61157, "longitude": -122.3353}, "transactions": [], "price": "$", "location": {"address1": "", "address2": "", "address3": "", "city": "Seattle", "zip_code": "98101", "country": "US", "state": "WA", "display_address": ["Seattle, WA 98101"]}, "phone": "+12064594936", "display_phone": "(206) 459-4936", "distance": 75.00411199524436}, {"id": "1yBl7rAXsGRKyv9XYUOKng", "alias": "il-bistro-seattle", "name": "IL Bistro", "image_url": "https://s3-media3.fl.yelpcdn.com/bphoto/Wd-Ab2duIQSTfrezO_QiyQ/o.jpg", "is_closed": false, "url": "https://www.yelp.com/biz/il-bistro-seattle?adjust_creative=yfMpLaf7muZFCbIJiMb75g&utm_campaign=yelp_api_v3&utm_medium=api_v3_business_search&utm_source=yfMpLaf7muZFCbIJiMb75g", "review_count": 590, "categories": [{"alias": "italian", "title": "Italian"}, {"alias": "lounges", "title": "Lounges"}, {"alias": "seafood", "title": "Seafood"}], "rating": 4.0, "coordinates": {"latitude": 47.6086751, "longitude": -122.3402434}, "transactions": [], "price": "$$$", "location": {"address1": "93 Pike St", "address2": "Ste A", "address3": "", "city": "Seattle", "zip_code": "98101", "country": "US", "state": "WA", "display_address": ["93 Pike St", "Ste A", "Seattle, WA 98101"]}, "phone": "+12066823049", "display_phone": "(206) 682-3049", "distance": 276.25491313438295}, {"id": "CrgS_PaX5vNSM1kRCXGFyg", "alias": "nijo-sushi-bar-and-grill-seattle", "name": "Nijo Sushi Bar & Grill", "image_url": "https://s3-media4.fl.yelpcdn.com/bphoto/8__CJ-tWEZiu1flWFySRvQ/o.jpg", "is_closed": false, "url": "https://www.yelp.com/biz/nijo-sushi-bar-and-grill-seattle?adjust_creative=yfMpLaf7muZFCbIJiMb75g&utm_campaign=yelp_api_v3&utm_medium=api_v3_business_search&utm_source=yfMpLaf7muZFCbIJiMb75g", "review_count": 827, "categories": [{"alias": "sushi", "title": "Sushi Bars"}, {"alias": "japanese", "title": "Japanese"}], "rating": 4.0, "coordinates": {"latitude": 47.60492, "longitude": -122.33762}, "transactions": ["pickup"], "price": "$$", "location": {"address1": "83 Spring St", "address2": "", "address3": "", "city": "Seattle", "zip_code": "98104", "country": "US", "state": "WA", "display_address": ["83 Spring St", "Seattle, WA 98104"]}, "phone": "+12063408880", "display_phone": "(206) 340-8880", "distance": 470.87089278559773}, {"id": "RPKigaA-6DAKFmOn7NHveQ", "alias": "nyc-deli-market-seattle-2", "name": "NYC Deli Market", "image_url": "https://s3-media2.fl.yelpcdn.com/bphoto/AkkeFziZLwNTrDd5b6bmYQ/o.jpg", "is_closed": false, "url": "https://www.yelp.com/biz/nyc-deli-market-seattle-2?adjust_creative=yfMpLaf7muZFCbIJiMb75g&utm_campaign=yelp_api_v3&utm_medium=api_v3_business_search&utm_source=yfMpLaf7muZFCbIJiMb75g", "review_count": 169, "categories": [{"alias": "delis", "title": "Delis"}, {"alias": "salad", "title": "Salad"}, {"alias": "breakfast_brunch", "title": "Breakfast & Brunch"}], "rating": 4.0, "coordinates": {"latitude": 47.6123, "longitude": -122.33358}, "transactions": ["pickup", "delivery"], "price": "$", "location": {"address1": "1520 7th Ave", "address2": "", "address3": "", "city": "Seattle", "zip_code": "98101", "country": "US", "state": "WA", "display_address": ["1520 7th Ave", "Seattle, WA 98101"]}, "phone": "+12066827011", "display_phone": "(206) 682-7011", "distance": 407.9603240080156}, {"id": "8F2c7WIN_m5Y-gi9B6VUNg", "alias": "walla-walla-farms-seattle", "name": "Walla Walla Farms", "image_url": "https://s3-media4.fl.yelpcdn.com/bphoto/oRtj53SqN9rXP1JQ9q3MWg/o.jpg", "is_closed": false, "url": "https://www.yelp.com/biz/walla-walla-farms-seattle?adjust_creative=yfMpLaf7muZFCbIJiMb75g&utm_campaign=yelp_api_v3&utm_medium=api_v3_business_search&utm_source=yfMpLaf7muZFCbIJiMb75g", "review_count": 18, "categories": [{"alias": "salad", "title": "Salad"}, {"alias": "breakfast_brunch", "title": "Breakfast & Brunch"}, {"alias": "sandwiches", "title": "Sandwiches"}], "rating": 4.0, "coordinates": {"latitude": 47.6101840891958, "longitude": -122.332524193848}, "transactions": ["delivery", "pickup"], "price": "$", "location": {"address1": "601 Union St", "address2": "Ste 224A", "address3": "", "city": "Seattle", "zip_code": "98101", "country": "US", "state": "WA", "display_address": ["601 Union St", "Ste 224A", "Seattle, WA 98101"]}, "phone": "+12063815730", "display_phone": "(206) 381-5730", "distance": 321.8533819423883}, {"id": "je_0_Cf1wnq8t-imkLgjYA", "alias": "post-alley-pizza-seattle", "name": "Post Alley Pizza", "image_url": "https://s3-media2.fl.yelpcdn.com/bphoto/eHUMIB1ATiMqIbcwfCHfZA/o.jpg", "is_closed": false, "url": "https://www.yelp.com/biz/post-alley-pizza-seattle?adjust_creative=yfMpLaf7muZFCbIJiMb75g&utm_campaign=yelp_api_v3&utm_medium=api_v3_business_search&utm_source=yfMpLaf7muZFCbIJiMb75g", "review_count": 130, "categories": [{"alias": "pizza", "title": "Pizza"}], "rating": 4.0, "coordinates": {"latitude": 47.6057, "longitude": -122.33817}, "transactions": [], "price": "$", "location": {"address1": "1123 Post Ave", "address2": "", "address3": "", "city": "Seattle", "zip_code": "98101", "country": "US", "state": "WA", "display_address": ["1123 Post Ave", "Seattle, WA 98101"]}, "phone": "+12063828475", "display_phone": "(206) 382-8475", "distance": 402.69740055183314}, {"id": "2x240xjHxO1dUKqwM48LqQ", "alias": "world-fresh-eatery-seattle", "name": "World Fresh Eatery", "image_url": "https://s3-media2.fl.yelpcdn.com/bphoto/u215yDxWJ5k8oHHqfv2ACA/o.jpg", "is_closed": false, "url": "https://www.yelp.com/biz/world-fresh-eatery-seattle?adjust_creative=yfMpLaf7muZFCbIJiMb75g&utm_campaign=yelp_api_v3&utm_medium=api_v3_business_search&utm_source=yfMpLaf7muZFCbIJiMb75g", "review_count": 48, "categories": [{"alias": "asianfusion", "title": "Asian Fusion"}, {"alias": "salad", "title": "Salad"}], "rating": 4.5, "coordinates": {"latitude": 47.607385611979, "longitude": -122.335605472326}, "transactions": [], "price": "$", "location": {"address1": "1218 Third Ave", "address2": "Ste 102", "address3": "", "city": "Seattle", "zip_code": "98101", "country": "US", "state": "WA", "display_address": ["1218 Third Ave", "Ste 102", "Seattle, WA 98101"]}, "phone": "+12066821035", "display_phone": "(206) 682-1035", "distance": 209.44271256095328}, {"id": "J7tIW9kx-ZraM7BHwFafHA", "alias": "206-burger-company-seattle", "name": "206 Burger Company", "image_url": "https://s3-media2.fl.yelpcdn.com/bphoto/DWxt0UBi63IXfkxOR7sE0w/o.jpg", "is_closed": false, "url": "https://www.yelp.com/biz/206-burger-company-seattle?adjust_creative=yfMpLaf7muZFCbIJiMb75g&utm_campaign=yelp_api_v3&utm_medium=api_v3_business_search&utm_source=yfMpLaf7muZFCbIJiMb75g", "review_count": 74, "categories": [{"alias": "burgers", "title": "Burgers"}], "rating": 4.0, "coordinates": {"latitude": 47.6048610579355, "longitude": -122.333658004412}, "transactions": ["pickup"], "price": "$", "location": {"address1": "823 3rd Ave", "address2": "Ste 106", "address3": "", "city": "Seattle", "zip_code": "98104", "country": "US", "state": "WA", "display_address": ["823 3rd Ave", "Ste 106", "Seattle, WA 98104"]}, "phone": "+12064674450", "display_phone": "(206) 467-4450", "distance": 524.6507530366237}, {"id": "bE_dVISXXsmN-1qv-wN6lg", "alias": "zane-wylies-seattle-steakhouse-seattle-2", "name": "Zane + Wylie's Seattle Steakhouse", "image_url": "https://s3-media1.fl.yelpcdn.com/bphoto/aX6VEWhqgVVV4HkVjutMhQ/o.jpg", "is_closed": false, "url": "https://www.yelp.com/biz/zane-wylies-seattle-steakhouse-seattle-2?adjust_creative=yfMpLaf7muZFCbIJiMb75g&utm_campaign=yelp_api_v3&utm_medium=api_v3_business_search&utm_source=yfMpLaf7muZFCbIJiMb75g", "review_count": 89, "categories": [{"alias": "bars", "title": "Bars"}, {"alias": "steak", "title": "Steakhouses"}], "rating": 4.0, "coordinates": {"latitude": 47.61356, "longitude": -122.33558}, "transactions": [], "price": "$$$", "location": {"address1": "624 Olive Way", "address2": "", "address3": null, "city": "Seattle", "zip_code": "98101", "country": "US", "state": "WA", "display_address": ["624 Olive Way", "Seattle, WA 98101"]}, "phone": "+12063974287", "display_phone": "(206) 397-4287", "distance": 501.9041710660875}, {"id": "zoaoqW4b2a5O4DE9LS45ow", "alias": "goldfinch-tavern-seattle", "name": "Goldfinch Tavern", "image_url": "https://s3-media1.fl.yelpcdn.com/bphoto/pZHag91M-uhxql_Mis8vzw/o.jpg", "is_closed": false, "url": "https://www.yelp.com/biz/goldfinch-tavern-seattle?adjust_creative=yfMpLaf7muZFCbIJiMb75g&utm_campaign=yelp_api_v3&utm_medium=api_v3_business_search&utm_source=yfMpLaf7muZFCbIJiMb75g", "review_count": 268, "categories": [{"alias": "seafood", "title": "Seafood"}, {"alias": "newamerican", "title": "American (New)"}, {"alias": "cocktailbars", "title": "Cocktail Bars"}], "rating": 4.0, "coordinates": {"latitude": 47.60762, "longitude": -122.33922}, "transactions": [], "price": "$$$", "location": {"address1": "99 Union St", "address2": "", "address3": "", "city": "Seattle", "zip_code": "98101", "country": "US", "state": "WA", "display_address": ["99 Union St", "Seattle, WA 98101"]}, "phone": "+12067497070", "display_phone": "(206) 749-7070", "distance": 272.3166007963356}, {"id": "937YYexfSIXPBmNSNn7ERg", "alias": "seattle-art-museum-seattle", "name": "Seattle Art Museum", "image_url": "https://s3-media1.fl.yelpcdn.com/bphoto/fIl0RLyoIYfsXVMQgudGng/o.jpg", "is_closed": false, "url": "https://www.yelp.com/biz/seattle-art-museum-seattle?adjust_creative=yfMpLaf7muZFCbIJiMb75g&utm_campaign=yelp_api_v3&utm_medium=api_v3_business_search&utm_source=yfMpLaf7muZFCbIJiMb75g", "review_count": 566, "categories": [{"alias": "artmuseums", "title": "Art Museums"}, {"alias": "venues", "title": "Venues & Event Spaces"}, {"alias": "cafes", "title": "Cafes"}], "rating": 4.0, "coordinates": {"latitude": 47.607697, "longitude": -122.338175}, "transactions": [], "price": "$$", "location": {"address1": "1300 1st Ave", "address2": "", "address3": "", "city": "Seattle", "zip_code": "98101", "country": "US", "state": "WA", "display_address": ["1300 1st Ave", "Seattle, WA 98101"]}, "phone": "+12066543210", "display_phone": "(206) 654-3210", "distance": 203.73062540086846}, {"id": "hPOm6RjAMhZYu9mVFmEwNA", "alias": "trace-seattle", "name": "TRACE", "image_url": "https://s3-media2.fl.yelpcdn.com/bphoto/m8z0IhD8hjGtYn2Hbivzgg/o.jpg", "is_closed": false, "url": "https://www.yelp.com/biz/trace-seattle?adjust_creative=yfMpLaf7muZFCbIJiMb75g&utm_campaign=yelp_api_v3&utm_medium=api_v3_business_search&utm_source=yfMpLaf7muZFCbIJiMb75g", "review_count": 156, "categories": [{"alias": "newamerican", "title": "American (New)"}, {"alias": "bars", "title": "Bars"}, {"alias": "asianfusion", "title": "Asian Fusion"}], "rating": 3.5, "coordinates": {"latitude": 47.607376, "longitude": -122.3336381}, "transactions": [], "price": "$$", "location": {"address1": "1112 4th Ave", "address2": "", "address3": "", "city": "Seattle", "zip_code": "98101", "country": "US", "state": "WA", "display_address": ["1112 4th Ave", "Seattle, WA 98101"]}, "phone": "+12062646060", "display_phone": "(206) 264-6060", "distance": 294.470110223224}, {"id": "pdsYTqc8SdlHL8sDkPs4Mw", "alias": "the-cheesecake-factory-seattle", "name": "The Cheesecake Factory", "image_url": "https://s3-media2.fl.yelpcdn.com/bphoto/ZPol8tHW0VScyCSjBzNBXg/o.jpg", "is_closed": false, "url": "https://www.yelp.com/biz/the-cheesecake-factory-seattle?adjust_creative=yfMpLaf7muZFCbIJiMb75g&utm_campaign=yelp_api_v3&utm_medium=api_v3_business_search&utm_source=yfMpLaf7muZFCbIJiMb75g", "review_count": 779, "categories": [{"alias": "newamerican", "title": "American (New)"}, {"alias": "desserts", "title": "Desserts"}], "rating": 3.5, "coordinates": {"latitude": 47.6118332068167, "longitude": -122.333091436816}, "transactions": [], "price": "$$", "location": {"address1": "700 Pike St", "address2": "", "address3": "", "city": "Seattle", "zip_code": "98101", "country": "US", "state": "WA", "display_address": ["700 Pike St", "Seattle, WA 98101"]}, "phone": "+12066525400", "display_phone": "(206) 652-5400", "distance": 393.89650858945413}, {"id": "IT64opBGdr1S_SR16KATXw", "alias": "purple-cafe-administrative-office-seattle", "name": "Purple Cafe Administrative Office", "image_url": "https://s3-media4.fl.yelpcdn.com/bphoto/vPVrkcfXTMQyVj0O7LoswQ/o.jpg", "is_closed": false, "url": "https://www.yelp.com/biz/purple-cafe-administrative-office-seattle?adjust_creative=yfMpLaf7muZFCbIJiMb75g&utm_campaign=yelp_api_v3&utm_medium=api_v3_business_search&utm_source=yfMpLaf7muZFCbIJiMb75g", "review_count": 1, "categories": [{"alias": "italian", "title": "Italian"}, {"alias": "steak", "title": "Steakhouses"}], "rating": 5.0, "coordinates": {"latitude": 47.60765, "longitude": -122.3354}, "transactions": [], "location": {"address1": "1218 3rd Ave", "address2": "", "address3": "", "city": "Seattle", "zip_code": "98101", "country": "US", "state": "WA", "display_address": ["1218 3rd Ave", "Seattle, WA 98101"]}, "phone": "+12068383852", "display_phone": "(206) 838-3852", "distance": 183.68902088070547}, {"id": "SXHcUq3LbblU47W6EDeChQ", "alias": "itty-bitty-schnitty-seattle", "name": "Itty Bitty Schnitty", "image_url": "https://s3-media1.fl.yelpcdn.com/bphoto/jZfECIruwstH2Ailj8voow/o.jpg", "is_closed": false, "url": "https://www.yelp.com/biz/itty-bitty-schnitty-seattle?adjust_creative=yfMpLaf7muZFCbIJiMb75g&utm_campaign=yelp_api_v3&utm_medium=api_v3_business_search&utm_source=yfMpLaf7muZFCbIJiMb75g", "review_count": 16, "categories": [{"alias": "foodtrucks", "title": "Food Trucks"}, {"alias": "german", "title": "German"}], "rating": 4.5, "coordinates": {"latitude": 47.6062095, "longitude": -122.3320708}, "transactions": [], "location": {"address1": null, "address2": "", "address3": null, "city": "Seattle", "zip_code": "98101", "country": "US", "state": "WA", "display_address": ["Seattle, WA 98101"]}, "phone": "+12066934900", "display_phone": "(206) 693-4900", "distance": 468.9876792760113}, {"id": "FE5SPrt6fCb1OBIr12-H9g", "alias": "blarney-stone-pub-and-restaurant-seattle", "name": "Blarney Stone Pub & Restaurant", "image_url": "https://s3-media4.fl.yelpcdn.com/bphoto/mJP_C4O3aOvNE5ApbPNq7g/o.jpg", "is_closed": false, "url": "https://www.yelp.com/biz/blarney-stone-pub-and-restaurant-seattle?adjust_creative=yfMpLaf7muZFCbIJiMb75g&utm_campaign=yelp_api_v3&utm_medium=api_v3_business_search&utm_source=yfMpLaf7muZFCbIJiMb75g", "review_count": 130, "categories": [{"alias": "pubs", "title": "Pubs"}, {"alias": "irish_pubs", "title": "Irish Pub"}, {"alias": "tapasmallplates", "title": "Tapas/Small Plates"}], "rating": 3.5, "coordinates": {"latitude": 47.608323, "longitude": -122.339217}, "transactions": [], "price": "$", "location": {"address1": "1416 1st Ave", "address2": "", "address3": "", "city": "Seattle", "zip_code": "98101", "country": "US", "state": "WA", "display_address": ["1416 1st Ave", "Seattle, WA 98101"]}, "phone": "+12064488439", "display_phone": "(206) 448-8439", "distance": 221.23001409059606}, {"id": "42JSfX1XbiJpbQHEYOV8tg", "alias": "specialtys-caf\u00e9-and-bakery-seattle-34", "name": "Specialty's Caf\u00e9 & Bakery", "image_url": "https://s3-media4.fl.yelpcdn.com/bphoto/e_RhFNNgP4_5wCK3DRqJdQ/o.jpg", "is_closed": false, "url": "https://www.yelp.com/biz/specialtys-caf%C3%A9-and-bakery-seattle-34?adjust_creative=yfMpLaf7muZFCbIJiMb75g&utm_campaign=yelp_api_v3&utm_medium=api_v3_business_search&utm_source=yfMpLaf7muZFCbIJiMb75g", "review_count": 390, "categories": [{"alias": "sandwiches", "title": "Sandwiches"}, {"alias": "cafes", "title": "Cafes"}, {"alias": "salad", "title": "Salad"}], "rating": 3.0, "coordinates": {"latitude": 47.6099650122892, "longitude": -122.334588693102}, "transactions": [], "price": "$", "location": {"address1": "1400 5th Ave", "address2": null, "address3": "", "city": "Seattle", "zip_code": "98101", "country": "US", "state": "WA", "display_address": ["1400 5th Ave", "Seattle, WA 98101"]}, "phone": "+18775022837", "display_phone": "(877) 502-2837", "distance": 171.4729640943987}, {"id": "hMx2GAjWRjudSDe1Y2OB1A", "alias": "chicken-valley-seattle", "name": "Chicken Valley", "image_url": "https://s3-media1.fl.yelpcdn.com/bphoto/I_4bHa_5a452NZvovPAxEg/o.jpg", "is_closed": false, "url": "https://www.yelp.com/biz/chicken-valley-seattle?adjust_creative=yfMpLaf7muZFCbIJiMb75g&utm_campaign=yelp_api_v3&utm_medium=api_v3_business_search&utm_source=yfMpLaf7muZFCbIJiMb75g", "review_count": 93, "categories": [{"alias": "foodstands", "title": "Food Stands"}, {"alias": "hotdogs", "title": "Fast Food"}, {"alias": "chickenshop", "title": "Chicken Shop"}], "rating": 4.0, "coordinates": {"latitude": 47.6089138, "longitude": -122.340377}, "transactions": [], "price": "$", "location": {"address1": "1507 Pike Pl", "address2": "", "address3": "", "city": "Seattle", "zip_code": "98101", "country": "US", "state": "WA", "display_address": ["1507 Pike Pl", "Seattle, WA 98101"]}, "phone": "+12066240595", "display_phone": "(206) 624-0595", "distance": 288.93421574160965}, {"id": "D1PaFW10wrTUEJMUedu-rQ", "alias": "the-diller-room-seattle", "name": "The Diller Room", "image_url": "https://s3-media3.fl.yelpcdn.com/bphoto/A0dzWr1v_uJQBHNb7aMx_Q/o.jpg", "is_closed": false, "url": "https://www.yelp.com/biz/the-diller-room-seattle?adjust_creative=yfMpLaf7muZFCbIJiMb75g&utm_campaign=yelp_api_v3&utm_medium=api_v3_business_search&utm_source=yfMpLaf7muZFCbIJiMb75g", "review_count": 220, "categories": [{"alias": "pizza", "title": "Pizza"}, {"alias": "cocktailbars", "title": "Cocktail Bars"}], "rating": 4.0, "coordinates": {"latitude": 47.60677, "longitude": -122.33791}, "transactions": [], "price": "$$", "location": {"address1": "1224 1st Ave", "address2": null, "address3": "", "city": "Seattle", "zip_code": "98101", "country": "US", "state": "WA", "display_address": ["1224 1st Ave", "Seattle, WA 98101"]}, "phone": "+12064674042", "display_phone": "(206) 467-4042", "distance": 277.3832139530679}, {"id": "1v-vVncnYb1d9uKTsOtCpg", "alias": "nordstrom-grill-seattle-2", "name": "Nordstrom Grill", "image_url": "https://s3-media4.fl.yelpcdn.com/bphoto/-xQg31S_FSg68kd5xCsE6g/o.jpg", "is_closed": false, "url": "https://www.yelp.com/biz/nordstrom-grill-seattle-2?adjust_creative=yfMpLaf7muZFCbIJiMb75g&utm_campaign=yelp_api_v3&utm_medium=api_v3_business_search&utm_source=yfMpLaf7muZFCbIJiMb75g", "review_count": 134, "categories": [{"alias": "newamerican", "title": "American (New)"}, {"alias": "cocktailbars", "title": "Cocktail Bars"}], "rating": 4.0, "coordinates": {"latitude": 47.6122877593491, "longitude": -122.336282730103}, "transactions": [], "price": "$$", "location": {"address1": "500 Pine St", "address2": "", "address3": "", "city": "Seattle", "zip_code": "98101", "country": "US", "state": "WA", "display_address": ["500 Pine St", "Seattle, WA 98101"]}, "phone": "+12066281620", "display_phone": "(206) 628-1620", "distance": 348.2567204126689}, {"id": "BSBzN5y10_kEGDERK26tDA", "alias": "4th-ave-espresso-bar-seattle-3", "name": "4th Ave Espresso Bar", "image_url": "https://s3-media2.fl.yelpcdn.com/bphoto/Z84_iCpoBLy1INd22QqmTQ/o.jpg", "is_closed": false, "url": "https://www.yelp.com/biz/4th-ave-espresso-bar-seattle-3?adjust_creative=yfMpLaf7muZFCbIJiMb75g&utm_campaign=yelp_api_v3&utm_medium=api_v3_business_search&utm_source=yfMpLaf7muZFCbIJiMb75g", "review_count": 23, "categories": [{"alias": "cafes", "title": "Cafes"}, {"alias": "macarons", "title": "Macarons"}, {"alias": "bakeries", "title": "Bakeries"}], "rating": 4.5, "coordinates": {"latitude": 47.60819, "longitude": -122.33414}, "transactions": [], "price": "$", "location": {"address1": "411 University St", "address2": null, "address3": "", "city": "Seattle", "zip_code": "98101", "country": "US", "state": "WA", "display_address": ["411 University St", "Seattle, WA 98101"]}, "phone": "+12062874008", "display_phone": "(206) 287-4008", "distance": 224.61630565419182}, {"id": "gOPpROjtxRN1gkep7tvG2Q", "alias": "incredibowls-seattle-2", "name": "Incredibowls", "image_url": "https://s3-media1.fl.yelpcdn.com/bphoto/goM8f_kkZKr0wY7E0QwlHw/o.jpg", "is_closed": false, "url": "https://www.yelp.com/biz/incredibowls-seattle-2?adjust_creative=yfMpLaf7muZFCbIJiMb75g&utm_campaign=yelp_api_v3&utm_medium=api_v3_business_search&utm_source=yfMpLaf7muZFCbIJiMb75g", "review_count": 36, "categories": [{"alias": "foodtrucks", "title": "Food Trucks"}, {"alias": "catering", "title": "Caterers"}, {"alias": "korean", "title": "Korean"}], "rating": 4.5, "coordinates": {"latitude": 47.61125, "longitude": -122.33493}, "transactions": [], "price": "$$", "location": {"address1": "", "address2": null, "address3": "", "city": "Seattle", "zip_code": "98101", "country": "US", "state": "WA", "display_address": ["Seattle, WA 98101"]}, "phone": "+12063534394", "display_phone": "(206) 353-4394", "distance": 75.00411199524436}, {"id": "eCb9BPCSEbg61H8KvJbbyA", "alias": "belle-epicurean-seattle-7", "name": "Belle Epicurean", "image_url": "https://s3-media3.fl.yelpcdn.com/bphoto/0Wj76UIzQzvgRtJSZCDF6w/o.jpg", "is_closed": false, "url": "https://www.yelp.com/biz/belle-epicurean-seattle-7?adjust_creative=yfMpLaf7muZFCbIJiMb75g&utm_campaign=yelp_api_v3&utm_medium=api_v3_business_search&utm_source=yfMpLaf7muZFCbIJiMb75g", "review_count": 382, "categories": [{"alias": "bakeries", "title": "Bakeries"}, {"alias": "breakfast_brunch", "title": "Breakfast & Brunch"}, {"alias": "cafes", "title": "Cafes"}], "rating": 4.0, "coordinates": {"latitude": 47.605589, "longitude": -122.333439}, "transactions": [], "price": "$$", "location": {"address1": "925 4th Ave", "address2": null, "address3": "", "city": "Seattle", "zip_code": "98104", "country": "US", "state": "WA", "display_address": ["925 4th Ave", "Seattle, WA 98104"]}, "phone": "+12062629306", "display_phone": "(206) 262-9306", "distance": 460.1935040543157}, {"id": "OWC5bb6hdMIdLWkIS9Pqhw", "alias": "moore-coffee-shop-seattle-5", "name": "Moore Coffee Shop", "image_url": "https://s3-media2.fl.yelpcdn.com/bphoto/3SFpAnqTaFVyehYpf4LcQg/o.jpg", "is_closed": false, "url": "https://www.yelp.com/biz/moore-coffee-shop-seattle-5?adjust_creative=yfMpLaf7muZFCbIJiMb75g&utm_campaign=yelp_api_v3&utm_medium=api_v3_business_search&utm_source=yfMpLaf7muZFCbIJiMb75g", "review_count": 92, "categories": [{"alias": "coffee", "title": "Coffee & Tea"}, {"alias": "breakfast_brunch", "title": "Breakfast & Brunch"}, {"alias": "sandwiches", "title": "Sandwiches"}], "rating": 4.5, "coordinates": {"latitude": 47.6105306, "longitude": -122.3412861}, "transactions": [], "price": "$", "location": {"address1": "112 Stewart St", "address2": "", "address3": null, "city": "Seattle", "zip_code": "98101", "country": "US", "state": "WA", "display_address": ["112 Stewart St", "Seattle, WA 98101"]}, "phone": "+12068837044", "display_phone": "(206) 883-7044", "distance": 372.5285128373956}, {"id": "s5dtSbslpUqatRKGboEOvw", "alias": "blue-water-taco-grill-seattle-12", "name": "Blue Water Taco Grill", "image_url": "https://s3-media3.fl.yelpcdn.com/bphoto/-YGErxRZ8-PEHxhrjugM-w/o.jpg", "is_closed": false, "url": "https://www.yelp.com/biz/blue-water-taco-grill-seattle-12?adjust_creative=yfMpLaf7muZFCbIJiMb75g&utm_campaign=yelp_api_v3&utm_medium=api_v3_business_search&utm_source=yfMpLaf7muZFCbIJiMb75g", "review_count": 124, "categories": [{"alias": "mexican", "title": "Mexican"}], "rating": 3.0, "coordinates": {"latitude": 47.6097899, "longitude": -122.33382}, "transactions": [], "price": "$", "location": {"address1": "515 Union St", "address2": "", "address3": "", "city": "Seattle", "zip_code": "98101", "country": "US", "state": "WA", "display_address": ["515 Union St", "Seattle, WA 98101"]}, "phone": "+12065884755", "display_phone": "(206) 588-4755", "distance": 208.51494527548593}, {"id": "lSD5baKgm7tuLvMVCcq4RQ", "alias": "falafel-king-seattle", "name": "Falafel King", "image_url": "https://s3-media2.fl.yelpcdn.com/bphoto/znWjgJiXDGYA_pRqHEWCFw/o.jpg", "is_closed": false, "url": "https://www.yelp.com/biz/falafel-king-seattle?adjust_creative=yfMpLaf7muZFCbIJiMb75g&utm_campaign=yelp_api_v3&utm_medium=api_v3_business_search&utm_source=yfMpLaf7muZFCbIJiMb75g", "review_count": 278, "categories": [{"alias": "mideastern", "title": "Middle Eastern"}, {"alias": "falafel", "title": "Falafel"}], "rating": 3.5, "coordinates": {"latitude": 47.60904, "longitude": -122.34049}, "transactions": ["pickup"], "price": "$", "location": {"address1": "1509 1st Ave", "address2": "", "address3": "", "city": "Seattle", "zip_code": "98101", "country": "US", "state": "WA", "display_address": ["1509 1st Ave", "Seattle, WA 98101"]}, "phone": "+12063810857", "display_phone": "(206) 381-0857", "distance": 297.64667816821753}, {"id": "8sJoRMq9pb9kGa2u9N7byQ", "alias": "chipotle-mexican-grill-seattle-8", "name": "Chipotle Mexican Grill", "image_url": "https://s3-media1.fl.yelpcdn.com/bphoto/SNV4fx8iBGt7wR-15plhtw/o.jpg", "is_closed": false, "url": "https://www.yelp.com/biz/chipotle-mexican-grill-seattle-8?adjust_creative=yfMpLaf7muZFCbIJiMb75g&utm_campaign=yelp_api_v3&utm_medium=api_v3_business_search&utm_source=yfMpLaf7muZFCbIJiMb75g", "review_count": 182, "categories": [{"alias": "mexican", "title": "Mexican"}, {"alias": "hotdogs", "title": "Fast Food"}], "rating": 3.0, "coordinates": {"latitude": 47.610006, "longitude": -122.337675}, "transactions": [], "price": "$", "location": {"address1": "1501 4th Ave", "address2": "", "address3": "", "city": "Seattle", "zip_code": "98101", "country": "US", "state": "WA", "display_address": ["1501 4th Ave", "Seattle, WA 98101"]}, "phone": "+12062040121", "display_phone": "(206) 204-0121", "distance": 126.77935930062604}, {"id": "VUIrdib8CoMJgd8bVH91QA", "alias": "relish-burger-bistro-seattle", "name": "Relish Burger Bistro", "image_url": "https://s3-media2.fl.yelpcdn.com/bphoto/Ku8oeOZBDMzAKtxqcKH62A/o.jpg", "is_closed": false, "url": "https://www.yelp.com/biz/relish-burger-bistro-seattle?adjust_creative=yfMpLaf7muZFCbIJiMb75g&utm_campaign=yelp_api_v3&utm_medium=api_v3_business_search&utm_source=yfMpLaf7muZFCbIJiMb75g", "review_count": 236, "categories": [{"alias": "newamerican", "title": "American (New)"}, {"alias": "burgers", "title": "Burgers"}, {"alias": "desserts", "title": "Desserts"}], "rating": 3.5, "coordinates": {"latitude": 47.6133791648334, "longitude": -122.338196391171}, "transactions": [], "price": "$$", "location": {"address1": "1900 5th Ave", "address2": "", "address3": "", "city": "Seattle", "zip_code": "98101", "country": "US", "state": "WA", "display_address": ["1900 5th Ave", "Seattle, WA 98101"]}, "phone": "+12062567600", "display_phone": "(206) 256-7600", "distance": 485.23140470894754}, {"id": "3CII2Sc82TCdp6YlXLqeFQ", "alias": "caff\u00e8-senso-unico-seattle-2", "name": "Caff\u00e8 Senso Unico", "image_url": "https://s3-media2.fl.yelpcdn.com/bphoto/6bT0uaWuLuXfsXY3a5W-2w/o.jpg", "is_closed": false, "url": "https://www.yelp.com/biz/caff%C3%A8-senso-unico-seattle-2?adjust_creative=yfMpLaf7muZFCbIJiMb75g&utm_campaign=yelp_api_v3&utm_medium=api_v3_business_search&utm_source=yfMpLaf7muZFCbIJiMb75g", "review_count": 221, "categories": [{"alias": "coffee", "title": "Coffee & Tea"}, {"alias": "cafes", "title": "Cafes"}, {"alias": "sandwiches", "title": "Sandwiches"}], "rating": 4.5, "coordinates": {"latitude": 47.6135499, "longitude": -122.33564}, "transactions": [], "price": "$", "location": {"address1": "622 Olive Way", "address2": null, "address3": "", "city": "Seattle", "zip_code": "98101", "country": "US", "state": "WA", "display_address": ["622 Olive Way", "Seattle, WA 98101"]}, "phone": "+12062647611", "display_phone": "(206) 264-7611", "distance": 502.4978331878538}, {"id": "koj3cZl3ANysCVIkRMXS4Q", "alias": "walla-walla-farms-seattle-3", "name": "Walla Walla Farms", "image_url": "https://s3-media2.fl.yelpcdn.com/bphoto/XTcmz6ip9Iuu0YKsH3RIMQ/o.jpg", "is_closed": false, "url": "https://www.yelp.com/biz/walla-walla-farms-seattle-3?adjust_creative=yfMpLaf7muZFCbIJiMb75g&utm_campaign=yelp_api_v3&utm_medium=api_v3_business_search&utm_source=yfMpLaf7muZFCbIJiMb75g", "review_count": 32, "categories": [{"alias": "cafes", "title": "Cafes"}], "rating": 4.0, "coordinates": {"latitude": 47.60614, "longitude": -122.33674}, "transactions": ["pickup"], "price": "$$", "location": {"address1": "1191 2nd Ave", "address2": "", "address3": "", "city": "Seattle", "zip_code": "98101", "country": "US", "state": "WA", "display_address": ["1191 2nd Ave", "Seattle, WA 98101"]}, "phone": "+12065380922", "display_phone": "(206) 538-0922", "distance": 351.0139442036158}, {"id": "U7G36EbPNtGNw4m1NM329w", "alias": "la-vaca-burrito-express-seattle", "name": "La Vaca Burrito Express", "image_url": "https://s3-media1.fl.yelpcdn.com/bphoto/WKGfmQaSZmrAjyr6JnhGWg/o.jpg", "is_closed": false, "url": "https://www.yelp.com/biz/la-vaca-burrito-express-seattle?adjust_creative=yfMpLaf7muZFCbIJiMb75g&utm_campaign=yelp_api_v3&utm_medium=api_v3_business_search&utm_source=yfMpLaf7muZFCbIJiMb75g", "review_count": 85, "categories": [{"alias": "mexican", "title": "Mexican"}, {"alias": "foodstands", "title": "Food Stands"}], "rating": 4.0, "coordinates": {"latitude": 47.60853, "longitude": -122.34001}, "transactions": [], "price": "$", "location": {"address1": "1429 1st Ave", "address2": "", "address3": "", "city": "Seattle", "zip_code": "98101", "country": "US", "state": "WA", "display_address": ["1429 1st Ave", "Seattle, WA 98101"]}, "phone": "+12064679262", "display_phone": "(206) 467-9262", "distance": 268.46952225120157}, {"id": "MGJjq7f9l7u9N0eJCw4PhQ", "alias": "ruths-chris-steak-house-seattle", "name": "Ruth's Chris Steak House", "image_url": "https://s3-media3.fl.yelpcdn.com/bphoto/4pnpF41XbaGgaFy0XArbGQ/o.jpg", "is_closed": false, "url": "https://www.yelp.com/biz/ruths-chris-steak-house-seattle?adjust_creative=yfMpLaf7muZFCbIJiMb75g&utm_campaign=yelp_api_v3&utm_medium=api_v3_business_search&utm_source=yfMpLaf7muZFCbIJiMb75g", "review_count": 599, "categories": [{"alias": "steak", "title": "Steakhouses"}, {"alias": "seafood", "title": "Seafood"}, {"alias": "tradamerican", "title": "American (Traditional)"}], "rating": 3.5, "coordinates": {"latitude": 47.61282, "longitude": -122.33317}, "transactions": [], "price": "$$$", "location": {"address1": "727 Pine St", "address2": null, "address3": "", "city": "Seattle", "zip_code": "98101", "country": "US", "state": "WA", "display_address": ["727 Pine St", "Seattle, WA 98101"]}, "phone": "+12066248524", "display_phone": "(206) 624-8524", "distance": 477.2635528773772}, {"id": "4VQZcSdhdzijEGRqftnfnw", "alias": "the-lodge-sports-grille-downtown-seattle", "name": "The Lodge Sports Grille Downtown", "image_url": "https://s3-media2.fl.yelpcdn.com/bphoto/q-Iy1FiAROMdbe5NyLyrLQ/o.jpg", "is_closed": false, "url": "https://www.yelp.com/biz/the-lodge-sports-grille-downtown-seattle?adjust_creative=yfMpLaf7muZFCbIJiMb75g&utm_campaign=yelp_api_v3&utm_medium=api_v3_business_search&utm_source=yfMpLaf7muZFCbIJiMb75g", "review_count": 222, "categories": [{"alias": "sportsbars", "title": "Sports Bars"}, {"alias": "newamerican", "title": "American (New)"}, {"alias": "pubs", "title": "Pubs"}], "rating": 2.5, "coordinates": {"latitude": 47.6071014, "longitude": -122.3334808}, "transactions": [], "price": "$$", "location": {"address1": "1102 4th Ave", "address2": "", "address3": "", "city": "Seattle", "zip_code": "98101", "country": "US", "state": "WA", "display_address": ["1102 4th Ave", "Seattle, WA 98101"]}, "phone": "+12065577360", "display_phone": "(206) 557-7360", "distance": 322.9041600533889}, {"id": "dkPWs-XCBYMTzU8bJxLIuQ", "alias": "bookstore-bar-and-cafe-seattle-6", "name": "Bookstore Bar & Cafe", "image_url": "https://s3-media3.fl.yelpcdn.com/bphoto/lQIrK_p5eRarHpvGXDpnAA/o.jpg", "is_closed": false, "url": "https://www.yelp.com/biz/bookstore-bar-and-cafe-seattle-6?adjust_creative=yfMpLaf7muZFCbIJiMb75g&utm_campaign=yelp_api_v3&utm_medium=api_v3_business_search&utm_source=yfMpLaf7muZFCbIJiMb75g", "review_count": 351, "categories": [{"alias": "bars", "title": "Bars"}, {"alias": "newamerican", "title": "American (New)"}, {"alias": "breakfast_brunch", "title": "Breakfast & Brunch"}], "rating": 3.5, "coordinates": {"latitude": 47.605121, "longitude": -122.33678}, "transactions": [], "price": "$$", "location": {"address1": "1007 1st Ave", "address2": "", "address3": "", "city": "Seattle", "zip_code": "98104", "country": "US", "state": "WA", "display_address": ["1007 1st Ave", "Seattle, WA 98104"]}, "phone": "+12066243646", "display_phone": "(206) 624-3646", "distance": 449.5445605479028}, {"id": "wHALiNpbvcSJz9Ho4yNIYA", "alias": "buffalo-wild-wings-seattle-2", "name": "Buffalo Wild Wings", "image_url": "https://s3-media4.fl.yelpcdn.com/bphoto/UYM9S1c-6G_0y29DHkep7w/o.jpg", "is_closed": false, "url": "https://www.yelp.com/biz/buffalo-wild-wings-seattle-2?adjust_creative=yfMpLaf7muZFCbIJiMb75g&utm_campaign=yelp_api_v3&utm_medium=api_v3_business_search&utm_source=yfMpLaf7muZFCbIJiMb75g", "review_count": 362, "categories": [{"alias": "chicken_wings", "title": "Chicken Wings"}, {"alias": "sportsbars", "title": "Sports Bars"}, {"alias": "tradamerican", "title": "American (Traditional)"}], "rating": 2.5, "coordinates": {"latitude": 47.6118772, "longitude": -122.3377297}, "transactions": ["delivery"], "price": "$$", "location": {"address1": "1624 4th Ave", "address2": "", "address3": "", "city": "Seattle", "zip_code": "98101", "country": "US", "state": "WA", "display_address": ["1624 4th Ave", "Seattle, WA 98101"]}, "phone": "+12064672743", "display_phone": "(206) 467-2743", "distance": 314.9551886881635}, {"id": "Jl9xGifVANMPG46PCuPlTg", "alias": "pho-25-seattle", "name": "Pho 25", "image_url": "https://s3-media3.fl.yelpcdn.com/bphoto/i8_P1tGp6YETAVPjZQ5n1w/o.jpg", "is_closed": false, "url": "https://www.yelp.com/biz/pho-25-seattle?adjust_creative=yfMpLaf7muZFCbIJiMb75g&utm_campaign=yelp_api_v3&utm_medium=api_v3_business_search&utm_source=yfMpLaf7muZFCbIJiMb75g", "review_count": 113, "categories": [{"alias": "vietnamese", "title": "Vietnamese"}, {"alias": "chinese", "title": "Chinese"}], "rating": 3.5, "coordinates": {"latitude": 47.61032, "longitude": -122.33875}, "transactions": [], "price": "$", "location": {"address1": "1525 3rd Ave", "address2": "", "address3": "", "city": "Seattle", "zip_code": "98101", "country": "US", "state": "WA", "display_address": ["1525 3rd Ave", "Seattle, WA 98101"]}, "phone": "+12065870862", "display_phone": "(206) 587-0862", "distance": 207.66470256311058}, {"id": "vuqOX7_RzY6nOulkwVesrg", "alias": "muse-at-benaroya-hall-seattle", "name": "Muse at Benaroya Hall", "image_url": "https://s3-media4.fl.yelpcdn.com/bphoto/EwqkOahqBkCojZO17YWQmQ/o.jpg", "is_closed": false, "url": "https://www.yelp.com/biz/muse-at-benaroya-hall-seattle?adjust_creative=yfMpLaf7muZFCbIJiMb75g&utm_campaign=yelp_api_v3&utm_medium=api_v3_business_search&utm_source=yfMpLaf7muZFCbIJiMb75g", "review_count": 11, "categories": [{"alias": "newamerican", "title": "American (New)"}], "rating": 3.5, "coordinates": {"latitude": 47.6074902, "longitude": -122.3370127}, "transactions": [], "price": "$$$", "location": {"address1": "200 University St", "address2": null, "address3": "", "city": "Seattle", "zip_code": "98101", "country": "US", "state": "WA", "display_address": ["200 University St", "Seattle, WA 98101"]}, "phone": "+12063366699", "display_phone": "(206) 336-6699", "distance": 123.92948677062526}, {"id": "zBJG_kFNt6M44cbuScrawQ", "alias": "p-f-changs-seattle", "name": "P.F. Chang's", "image_url": "https://s3-media3.fl.yelpcdn.com/bphoto/QaXz8CrYwFl8TdbITCsryg/o.jpg", "is_closed": false, "url": "https://www.yelp.com/biz/p-f-changs-seattle?adjust_creative=yfMpLaf7muZFCbIJiMb75g&utm_campaign=yelp_api_v3&utm_medium=api_v3_business_search&utm_source=yfMpLaf7muZFCbIJiMb75g", "review_count": 428, "categories": [{"alias": "chinese", "title": "Chinese"}, {"alias": "asianfusion", "title": "Asian Fusion"}, {"alias": "gluten_free", "title": "Gluten-Free"}], "rating": 3.0, "coordinates": {"latitude": 47.6117296300283, "longitude": -122.337520347916}, "transactions": ["pickup", "delivery"], "price": "$$", "location": {"address1": "400 Pine St", "address2": "Ste 136", "address3": "", "city": "Seattle", "zip_code": "98101", "country": "US", "state": "WA", "display_address": ["400 Pine St", "Ste 136", "Seattle, WA 98101"]}, "phone": "+12063930070", "display_phone": "(206) 393-0070", "distance": 294.95804517414194}, {"id": "gR_pA9ZAAey5Yi2N9juBYg", "alias": "great-state-burger-seattle-6", "name": "Great State Burger", "image_url": "https://s3-media2.fl.yelpcdn.com/bphoto/CiXSbxR7NloCMwEgfnQJtA/o.jpg", "is_closed": false, "url": "https://www.yelp.com/biz/great-state-burger-seattle-6?adjust_creative=yfMpLaf7muZFCbIJiMb75g&utm_campaign=yelp_api_v3&utm_medium=api_v3_business_search&utm_source=yfMpLaf7muZFCbIJiMb75g", "review_count": 33, "categories": [{"alias": "burgers", "title": "Burgers"}, {"alias": "hotdogs", "title": "Fast Food"}, {"alias": "breakfast_brunch", "title": "Breakfast & Brunch"}], "rating": 3.0, "coordinates": {"latitude": 47.60654, "longitude": -122.33534}, "transactions": ["pickup", "delivery"], "price": "$$", "location": {"address1": "1111 3rd Ave", "address2": "", "address3": null, "city": "Seattle", "zip_code": "98101", "country": "US", "state": "WA", "display_address": ["1111 3rd Ave", "Seattle, WA 98101"]}, "phone": "+12067757111", "display_phone": "(206) 775-7111", "distance": 286.6168875570754}, {"id": "qVfGySBRj3oS8YbJ9h-efw", "alias": "cafe-yumm-seattle-2", "name": "Cafe Yumm!", "image_url": "https://s3-media2.fl.yelpcdn.com/bphoto/YoGWzEwp4LsgqJwPkzPIvQ/o.jpg", "is_closed": false, "url": "https://www.yelp.com/biz/cafe-yumm-seattle-2?adjust_creative=yfMpLaf7muZFCbIJiMb75g&utm_campaign=yelp_api_v3&utm_medium=api_v3_business_search&utm_source=yfMpLaf7muZFCbIJiMb75g", "review_count": 190, "categories": [{"alias": "cafes", "title": "Cafes"}], "rating": 3.5, "coordinates": {"latitude": 47.612664, "longitude": -122.333956}, "transactions": ["pickup", "delivery"], "price": "$", "location": {"address1": "717 Pine St", "address2": "", "address3": "", "city": "Seattle", "zip_code": "98101", "country": "US", "state": "WA", "display_address": ["717 Pine St", "Seattle, WA 98101"]}, "phone": "+12066249866", "display_phone": "(206) 624-9866", "distance": 435.06675277402763}, {"id": "9c0lSX6KTe88-ZLva1nu0w", "alias": "maximilien-seattle", "name": "Maximilien", "image_url": "https://s3-media2.fl.yelpcdn.com/bphoto/S3Ms2nvCPxWNrLpW6efYsA/o.jpg", "is_closed": false, "url": "https://www.yelp.com/biz/maximilien-seattle?adjust_creative=yfMpLaf7muZFCbIJiMb75g&utm_campaign=yelp_api_v3&utm_medium=api_v3_business_search&utm_source=yfMpLaf7muZFCbIJiMb75g", "review_count": 636, "categories": [{"alias": "french", "title": "French"}], "rating": 3.5, "coordinates": {"latitude": 47.60831, "longitude": -122.34081}, "transactions": [], "price": "$$", "location": {"address1": "81A Pike St", "address2": "Ste A", "address3": "", "city": "Seattle", "zip_code": "98101", "country": "US", "state": "WA", "display_address": ["81A Pike St", "Ste A", "Seattle, WA 98101"]}, "phone": "+12066827270", "display_phone": "(206) 682-7270", "distance": 313.9145700087107}], "total": 248, "region": {"center": {"longitude": -122.33654022216797, "latitude": 47.60916062240864}}}